Route,Location,URL,"Avg Stars","Your Stars","Route Type",Rating,Pitches,Length,"Area Latitude","Area Longitude"
211,"The Grand Fuqua > The Valley of Kings > Rattlesnake Canyon > Indian Cove > Joshua Tree National Park > California",https://www.mountainproject.com/route/105723871/211,1.5,-1,Trad,5.10c,1,30,34.07334,-116.14192
Boortemus,"Iceberg Boulder > Rattlesnake Canyon > Indian Cove > Joshua Tree National Park > California",https://www.mountainproject.com/route/105722686/boortemus,2.9,-1,Trad,5.10+,1,35,34.08599,-116.14488
"City Slickers","Corral Wall - Left Side > Corral Wall > Rattlesnake Canyon > Indian Cove > Joshua Tree National Park > California",https://www.mountainproject.com/route/107483621/city-slickers,1.0,-1,TR,5.10c,1,40,34.08348,-116.14258
"You're the One For Me, Fatty","The Morrissey Crag > Rattlesnake Canyon > Indian Cove > Joshua Tree National Park > California",https://www.mountainproject.com/route/105723331/youre-the-one-for-me-fatty,1.0,-1,Trad,5.10c,1,80,34.0835,-116.1406
"Love Comes in Spurts","The KD Boulder > Rattlesnake Canyon > Indian Cove > Joshua Tree National Park > California",https://www.mountainproject.com/route/106402142/love-comes-in-spurts,1.0,-1,Trad,5.10+,1,40,34.07839,-116.14248
Unknown,"The Pyramid > Rattlesnake Canyon > Indian Cove > Joshua Tree National Park > California",https://www.mountainproject.com/route/105724027/unknown,0.0,-1,Trad,5.10c,1,90,34.07859,-116.1451
"The Hoosegow","Upper Dodge City > Rattlesnake Canyon > Indian Cove > Joshua Tree National Park > California",https://www.mountainproject.com/route/106354880/the-hoosegow,3.0,-1,Trad,5.10c,1,100,34.08063,-116.14308
Udi,"Udi Buttress Area > Rattlesnake Canyon > Indian Cove > Joshua Tree National Park > California",https://www.mountainproject.com/route/106759957/udi,2.0,-1,Trad,5.10+,1,120,34.07616,-116.14317
Katoomba,"Group Campsite  2 > Group Campsites Road > Indian Cove > Joshua Tree National Park > California",https://www.mountainproject.com/route/106785035/katoomba,2.0,-1,Sport,5.10c,1,40,34.0966,-116.1576
Celine,"East Face > Hodgepodge Rock > Group Campsite  8 > Group Campsites Road > Indian Cove > Joshua Tree National Park > California",https://www.mountainproject.com/route/106755751/celine,2.0,-1,Trad,5.10c,1,60,34.097,-116.1604
IASFRAYASMF,"Camp Wall > Group Campsite  8 > Group Campsites Road > Indian Cove > Joshua Tree National Park > California",https://www.mountainproject.com/route/105900684/iasfrayasmf,0.0,-1,Sport,"5.10+ X",1,50,34.097,-116.1592
"Belay Girl","Short Wall - Left Side > Short Wall > Indian Cove Campground > Indian Cove > Joshua Tree National Park > California",https://www.mountainproject.com/route/105721855/belay-girl,1.7,-1,Sport,5.10c,1,50,34.09258,-116.15368
"Left Arete","Short Wall - Left Side > Short Wall > Indian Cove Campground > Indian Cove > Joshua Tree National Park > California",https://www.mountainproject.com/route/106345582/left-arete,1.5,-1,TR,5.10+,1,60,34.09258,-116.15368
Shattered,"Campfire Crag - South Face > Campfire Crag Area > Indian Cove Campground > Indian Cove > Joshua Tree National Park > California",https://www.mountainproject.com/route/106331977/shattered,2.4,-1,Sport,5.10c,1,60,34.09514,-116.1586
"I Love my Marine, Direct","Campfire Crag - South Face > Campfire Crag Area > Indian Cove Campground > Indian Cove > Joshua Tree National Park > California",https://www.mountainproject.com/route/106627442/i-love-my-marine-direct,2.0,-1,Trad,5.10c,1,90,34.09514,-116.1586
McChoss,"Campfire Crag - South Face > Campfire Crag Area > Indian Cove Campground > Indian Cove > Joshua Tree National Park > California",https://www.mountainproject.com/route/106627459/mcchoss,1.5,-1,TR,5.10c,1,60,34.09514,-116.1586
"The Beltsander","Condor Rock > Indian Cove Campground > Indian Cove > Joshua Tree National Park > California",https://www.mountainproject.com/route/106786119/the-beltsander,1.0,-1,Trad,5.10c,1,60,34.09055,-116.15713
"The Kestrel","Condor Rock > Indian Cove Campground > Indian Cove > Joshua Tree National Park > California",https://www.mountainproject.com/route/114270117/the-kestrel,1.0,-1,TR,5.10c,1,65,34.09055,-116.15713
"Tastes Like Chicken","Spider Wall > Indian Cove Campground > Indian Cove > Joshua Tree National Park > California",https://www.mountainproject.com/route/105724993/tastes-like-chicken,0.0,-1,"Trad, TR","5.10c X",1,50,34.09375,-116.1613
"Character Flaw","The Tooth > Indian Cove Campground > Indian Cove > Joshua Tree National Park > California",https://www.mountainproject.com/route/106041408/character-flaw,1.5,-1,Trad,5.10c/d,1,60,34.09355,-116.16265
"Mystic Teflon","Palmreader Wall > Indian Cove Campground > Indian Cove > Joshua Tree National Park > California",https://www.mountainproject.com/route/105723046/mystic-teflon,1.7,-1,Trad,5.10c,1,45,34.09345,-116.16174
"Hollywood and Vaino","Willit Pillar > Indian Cove Campground > Indian Cove > Joshua Tree National Park > California",https://www.mountainproject.com/route/105977780/hollywood-and-vaino,2.2,-1,Trad,"5.10c PG13",1,80,34.0933,-116.15514
Chihuahua,"Corona/Dos Equis Wall > Indian Cove Campground > Indian Cove > Joshua Tree National Park > California",https://www.mountainproject.com/route/105724219/chihuahua,1.9,-1,Trad,5.10b/c,1,60,34.09361,-116.16236
"Flare Play","Corona/Dos Equis Wall > Indian Cove Campground > Indian Cove > Joshua Tree National Park > California",https://www.mountainproject.com/route/106051632/flare-play,2.8,-1,Trad,5.10c,1,80,34.09361,-116.16236
"Dogleg Right","Iron Hand Rock > Indian Cove Campground > Indian Cove > Joshua Tree National Park > California",https://www.mountainproject.com/route/105977764/dogleg-right,1.0,-1,Trad,"5.10c/d PG13",1,,34.0925,-116.1576
"Anti-Gravity Acrobatics","Dark Shadows Rock > Indian Cove Campground > Indian Cove > Joshua Tree National Park > California",https://www.mountainproject.com/route/105948195/anti-gravity-acrobatics,1.0,-1,Trad,"5.10c/d R",1,,34.09303,-116.15481
"Wax (aka Nature of the Beast)","Nature Trail Wall > Indian Cove Campground > Indian Cove > Joshua Tree National Park > California",https://www.mountainproject.com/route/107217875/wax-aka-nature-of-the-beast,1.9,-1,Sport,5.10c,1,50,34.09405,-116.1683
"Sweat Band","King Otto's Castle > Indian Cove Campground > Indian Cove > Joshua Tree National Park > California",https://www.mountainproject.com/route/105721687/sweat-band,2.6,-1,Trad,"5.10b/c PG13",1,80,34.0924,-116.1569
"Goodbye Mr. Bond","King Otto's Castle > Indian Cove Campground > Indian Cove > Joshua Tree National Park > California",https://www.mountainproject.com/route/105725434/goodbye-mr-bond,2.7,-1,Trad,5.10c,1,70,34.0924,-116.1569
Coco-Loco,"Feudal Wall (Left Side) > Feudal Wall > Indian Cove Campground > Indian Cove > Joshua Tree National Park > California",https://www.mountainproject.com/route/105724852/coco-loco,2.2,-1,Trad,5.10b/c,1,60,34.09302,-116.15404
"Not Just another Pretty Face","Feudal Wall (Left Side) > Feudal Wall > Indian Cove Campground > Indian Cove > Joshua Tree National Park > California",https://www.mountainproject.com/route/105724849/not-just-another-pretty-face,1.0,-1,Trad,5.10c,1,60,34.09302,-116.15404
"Socrates Sucks","Feudal Wall (Right Side) > Feudal Wall > Indian Cove Campground > Indian Cove > Joshua Tree National Park > California",https://www.mountainproject.com/route/105872915/socrates-sucks,1.8,-1,TR,5.10c,1,50,34.09313,-116.15342
"Iron Man's Traverse","The Old Woman - West Face > The Old Woman > Hidden Valley Campground > Joshua Tree National Park > California",https://www.mountainproject.com/route/111350637/iron-mans-traverse,2.0,-1,Trad,"5.10c R",2,150,34.01661,-116.16386
"Band Saw","The Old Woman - West Face > The Old Woman > Hidden Valley Campground > Joshua Tree National Park > California",https://www.mountainproject.com/route/105721798/band-saw,2.7,-1,Trad,"5.10c R",1,80,34.01661,-116.16386
"Middle Band","The Old Woman - West Face > The Old Woman > Hidden Valley Campground > Joshua Tree National Park > California",https://www.mountainproject.com/route/105999261/middle-band,1.5,-1,Trad,5.10+,2,165,34.01661,-116.16386
"Bearded Cabbage","The Old Woman - East Face > The Old Woman > Hidden Valley Campground > Joshua Tree National Park > California",https://www.mountainproject.com/route/105721711/bearded-cabbage,3.0,-1,Trad,5.10c,1,80,34.01667,-116.16367
"Hinterstoisser Traverse, The","The Old Woman - East Face > The Old Woman > Hidden Valley Campground > Joshua Tree National Park > California",https://www.mountainproject.com/route/105839327/hinterstoisser-traverse-the,1.8,-1,Trad,5.10c,1,60,34.01667,-116.16367
"Surrealistic Pillar","The Blob - East Face > The Blob > Hidden Valley Campground > Joshua Tree National Park > California",https://www.mountainproject.com/route/105796868/surrealistic-pillar,3.0,-1,Trad,5.10b/c,1,110,34.01838,-116.16406
"Smear Tactics","The Blob - West Face > The Blob > Hidden Valley Campground > Joshua Tree National Park > California",https://www.mountainproject.com/route/105839919/smear-tactics,2.0,-1,Trad,5.10c,1,60,34.01799,-116.16431
"Use It or Lose It","The Blob - North Face > The Blob > Hidden Valley Campground > Joshua Tree National Park > California",https://www.mountainproject.com/route/108913266/use-it-or-lose-it,1.6,-1,Trad,"5.10c PG13",1,100,34.01868,-116.16457
Junior,"The Blob - Southeast Face > The Blob > Hidden Valley Campground > Joshua Tree National Park > California",https://www.mountainproject.com/route/105721642/junior,1.0,-1,Trad,"5.10c R",1,50,34.01793,-116.16382
"New Year's Day","Cyclops Rock > Hidden Valley Campground > Joshua Tree National Park > California",https://www.mountainproject.com/route/105724462/new-years-day,1.9,-1,Trad,5.10b/c,2,90,34.01496,-116.15944
"Slim Jim","Cyclops Rock > Hidden Valley Campground > Joshua Tree National Park > California",https://www.mountainproject.com/route/111156066/slim-jim,1.0,-1,TR,5.10c,1,60,34.01496,-116.15944
"The Official Route of the 1984 Olympics","Cyclops Rock > Hidden Valley Campground > Joshua Tree National Park > California",https://www.mountainproject.com/route/105721957/the-official-route-of-the-1984-olympics,3.1,-1,Trad,"5.10c PG13",1,100,34.01496,-116.15944
"Death by Misadventure","Intersection Rock > Hidden Valley Campground > Joshua Tree National Park > California",https://www.mountainproject.com/route/105725812/death-by-misadventure,0.0,-1,Trad,"5.10c X",1,40,34.0148,-116.163
Billabong,"Intersection Rock > Hidden Valley Campground > Joshua Tree National Park > California",https://www.mountainproject.com/route/105725860/billabong,2.5,-1,Trad,"5.10c PG13",2,150,34.0148,-116.163
"When Sheep Ran Scared","Intersection Rock > Hidden Valley Campground > Joshua Tree National Park > California",https://www.mountainproject.com/route/116232128/when-sheep-ran-scared,2.0,-1,Trad,"5.10c R",1,140,34.0148,-116.163
"The Flue, Right","Chimney Rock - East Face > Chimney Rock > Hidden Valley Campground > Joshua Tree National Park > California",https://www.mountainproject.com/route/106525325/the-flue-right,2.4,-1,Trad,"5.10c R",1,80,34.01677,-116.16144
"The Oui Oui","Peewee Rock > Hidden Valley Campground > Joshua Tree National Park > California",https://www.mountainproject.com/route/105821494/the-oui-oui,1.8,-1,Trad,5.10c/d,1,80,34.01424,-116.16042
"Sinner's Swing","EBGB Block Area > Echo Rock > Echo Rock Area > Joshua Tree National Park > California",https://www.mountainproject.com/route/107099071/sinners-swing,2.0,-1,Trad,5.10c,1,100,34.02443,-116.1557
"The Falcon and The Snowman","Echo Rock - West Face > Echo Rock > Echo Rock Area > Joshua Tree National Park > California",https://www.mountainproject.com/route/105725275/the-falcon-and-the-snowman,2.4,-1,Trad,"5.10c PG13",1,60,34.02513,-116.15617
"Fall from Grace","Echo Rock - West Face > Echo Rock > Echo Rock Area > Joshua Tree National Park > California",https://www.mountainproject.com/route/106607205/fall-from-grace,1.0,-1,Trad,5.10c,1,75,34.02513,-116.15617
"Try Again","Echo Rock - West Face > Echo Rock > Echo Rock Area > Joshua Tree National Park > California",https://www.mountainproject.com/route/105801104/try-again,2.1,-1,Trad,"5.10c PG13",1,150,34.02513,-116.15617
"April Fools","Echo Rock - West Face > Echo Rock > Echo Rock Area > Joshua Tree National Park > California",https://www.mountainproject.com/route/113816502/april-fools,2.0,-1,Trad,"5.10c R",1,90,34.02513,-116.15617
"Cherry Bomb","Echo Rock - West Face > Echo Rock > Echo Rock Area > Joshua Tree National Park > California",https://www.mountainproject.com/route/105859282/cherry-bomb,2.0,-1,Trad,5.10c,1,160,34.02513,-116.15617
Legolas,"Echo Rock - West Face > Echo Rock > Echo Rock Area > Joshua Tree National Park > California",https://www.mountainproject.com/route/105859286/legolas,1.9,-1,Trad,5.10c,1,160,34.02513,-116.15617
"Such a Sandwich","Echo Rock - West Face > Echo Rock > Echo Rock Area > Joshua Tree National Park > California",https://www.mountainproject.com/route/112342517/such-a-sandwich,1.0,-1,TR,5.10c,1,130,34.02513,-116.15617
Unzipper,"Echo Rock - West Face > Echo Rock > Echo Rock Area > Joshua Tree National Park > California",https://www.mountainproject.com/route/112423353/unzipper,1.5,-1,"Sport, TR","5.10+ PG13",1,105,34.02513,-116.15617
"The Menace","Echo Rock - E Face (Left) > Echo Rock - East Face > Echo Rock > Echo Rock Area > Joshua Tree National Park > California",https://www.mountainproject.com/route/106760150/the-menace,2.0,-1,Sport,5.10c,1,70,34.02494,-116.15472
"Lot Lizard","Echo Rock - E Face (Left) > Echo Rock - East Face > Echo Rock > Echo Rock Area > Joshua Tree National Park > California",https://www.mountainproject.com/route/105790938/lot-lizard,2.5,-1,TR,5.10c,1,40,34.02494,-116.15472
"Pope's Crack, Direct Finish","Echo Rock - South Face > Echo Rock > Echo Rock Area > Joshua Tree National Park > California",https://www.mountainproject.com/route/106683237/popes-crack-direct-finish,3.2,-1,Trad,5.10b/c,1,130,34.02465,-116.15513
"Nestle's Crunch","Little Rock Candy Mountain > Echo Rock Area > Joshua Tree National Park > California",https://www.mountainproject.com/route/105723811/nestles-crunch,1.3,-1,Trad,5.10c,1,50,34.02386,-116.15132
Unknown,"Anasazi Wall > Echo Rock Area > Joshua Tree National Park > California",https://www.mountainproject.com/route/111249291/unknown,1.0,-1,Trad,5.10+,1,50,34.02626,-116.1486
"Ancestral Puebloans","Anasazi Wall > Echo Rock Area > Joshua Tree National Park > California",https://www.mountainproject.com/route/111249126/ancestral-puebloans,1.0,-1,"Trad, TR",5.10+,1,35,34.02626,-116.1486
"Hatfields and McCoys","Echo Cove - East Side > Echo Cove > Echo Rock Area > Joshua Tree National Park > California",https://www.mountainproject.com/route/106953353/hatfields-and-mccoys,2.6,-1,Trad,5.10b/c,1,50,34.02521,-116.15706
"Battle of Britain (aka Penelope Street)","Echo Cove - North Side > Echo Cove > Echo Rock Area > Joshua Tree National Park > California",https://www.mountainproject.com/route/105859205/battle-of-britain-aka-penelope-street,1.8,-1,Trad,5.10b/c,1,80,34.02489,-116.1578
"Out on a Limb","Echo Cove - South Face > Echo Cove > Echo Rock Area > Joshua Tree National Park > California",https://www.mountainproject.com/route/105722530/out-on-a-limb,2.2,-1,Trad,5.10b/c,1,50,34.0242,-116.1582
"Cactus Pricks","Echo Cove - South Face > Echo Cove > Echo Rock Area > Joshua Tree National Park > California",https://www.mountainproject.com/route/118229703/cactus-pricks,1.0,-1,Trad,5.10b/c,1,60,34.0242,-116.1582
Atari,"Echo Cove - South Face > Echo Cove > Echo Rock Area > Joshua Tree National Park > California",https://www.mountainproject.com/route/105859238/atari,1.0,-1,Trad,5.10c,1,60,34.0242,-116.1582
"Possessed by Elvis","Echo Cove - South Face > Echo Cove > Echo Rock Area > Joshua Tree National Park > California",https://www.mountainproject.com/route/105724585/possessed-by-elvis,1.5,-1,Trad,5.10c,1,40,34.0242,-116.1582
"Ocean of Night (aka Out to Grunge)","Echo Cove - South Side > Echo Cove > Echo Rock Area > Joshua Tree National Park > California",https://www.mountainproject.com/route/105723355/ocean-of-night-aka-out-to-grunge,2.8,-1,Trad,5.10b/c,1,70,34.02451,-116.15802
"Eileen Dover","Ben Dover Face > Echo Cove > Echo Rock Area > Joshua Tree National Park > California",https://www.mountainproject.com/route/106544622/eileen-dover,2.4,-1,Sport,5.10c,1,50,34.02545,-116.15859
"Connie's Big Step","SW Face Left (Trespassers Wall) > Little Hunk - SW Face > Little Hunk > Echo Rock Area > Joshua Tree National Park > California",https://www.mountainproject.com/route/107953710/connies-big-step,2.0,-1,Trad,"5.10c R",1,150,34.0272,-116.153
"Feeling Groovy","SW Face Left (Trespassers Wall) > Little Hunk - SW Face > Little Hunk > Echo Rock Area > Joshua Tree National Park > California",https://www.mountainproject.com/route/105859691/feeling-groovy,1.0,-1,Trad,5.10c,1,60,34.0272,-116.153
"Compassion of the Elephants","SW Face Left (Trespassers Wall) > Little Hunk - SW Face > Little Hunk > Echo Rock Area > Joshua Tree National Park > California",https://www.mountainproject.com/route/105722485/compassion-of-the-elephants,2.8,-1,Trad,5.10c,1,100,34.0272,-116.153
"Trespassers Will Be Violated","SW Face Left (Trespassers Wall) > Little Hunk - SW Face > Little Hunk > Echo Rock Area > Joshua Tree National Park > California",https://www.mountainproject.com/route/105723814/trespassers-will-be-violated,2.8,-1,Trad,5.10c,1,120,34.0272,-116.153
"Out of Order","SW Face Center (The Solarium) > Little Hunk - SW Face > Little Hunk > Echo Rock Area > Joshua Tree National Park > California",https://www.mountainproject.com/route/106660933/out-of-order,2.4,-1,Sport,5.10c,1,50,34.0265,-116.152
Uppercut,"SW Face Center (The Solarium) > Little Hunk - SW Face > Little Hunk > Echo Rock Area > Joshua Tree National Park > California",https://www.mountainproject.com/route/106662064/uppercut,2.6,-1,Trad,5.10c,1,100,34.0265,-116.152
"Broken Hearted","SW Face Center (The Solarium) > Little Hunk - SW Face > Little Hunk > Echo Rock Area > Joshua Tree National Park > California",https://www.mountainproject.com/route/106661331/broken-hearted,1.8,-1,Sport,5.10c,1,100,34.0265,-116.152
"The Paw","SW Face Right (Monkey Business Wall) > Little Hunk - SW Face > Little Hunk > Echo Rock Area > Joshua Tree National Park > California",https://www.mountainproject.com/route/105920840/the-paw,2.0,-1,Sport,5.10b/c,1,35,34.0261,-116.1507
"Return of the Chuckwalla","Little Hunk - NE Face (Shady Grove Wall) > Little Hunk - NE Face > Little Hunk > Echo Rock Area > Joshua Tree National Park > California",https://www.mountainproject.com/route/108091528/return-of-the-chuckwalla,2.0,-1,Trad,5.10c,1,50,34.0268,-116.1517
Swain-Buckey,"Little Hunk - NE Face (Shady Grove Wall) > Little Hunk - NE Face > Little Hunk > Echo Rock Area > Joshua Tree National Park > California",https://www.mountainproject.com/route/107116527/swain-buckey,2.2,-1,Trad,5.10c,1,50,34.0268,-116.1517
"Blues Traveller","Little Hunk - NE Face (Right) > Little Hunk - NE Face > Little Hunk > Echo Rock Area > Joshua Tree National Park > California",https://www.mountainproject.com/route/105723553/blues-traveller,2.0,-1,Trad,5.10+,1,70,34.0277,-116.1531
"Potato Head","Little Hunk - NE Face (Right) > Little Hunk - NE Face > Little Hunk > Echo Rock Area > Joshua Tree National Park > California",https://www.mountainproject.com/route/105725737/potato-head,2.0,-1,"Trad, TR","5.10c/d R",1,40,34.0277,-116.1531
"Point of No Return","Little Hunk - NE Face (Left) > Little Hunk - NE Face > Little Hunk > Echo Rock Area > Joshua Tree National Park > California",https://www.mountainproject.com/route/105860262/point-of-no-return,2.3,-1,Trad,5.10c,1,30,34.0262,-116.1503
"Move to the Groove","Little Hunk - NE Face (Left) > Little Hunk - NE Face > Little Hunk > Echo Rock Area > Joshua Tree National Park > California",https://www.mountainproject.com/route/108091572/move-to-the-groove,1.0,-1,TR,5.10c,1,35,34.0262,-116.1503
Thunderwood,"Snickers - North Face > Snickers > Echo Rock Area > Joshua Tree National Park > California",https://www.mountainproject.com/route/108548624/thunderwood,1.2,-1,Sport,5.10c,1,90,34.02522,-116.15058
"No Place for a Puritan","Snickers - North Face > Snickers > Echo Rock Area > Joshua Tree National Park > California",https://www.mountainproject.com/route/112311101/no-place-for-a-puritan,1.0,-1,Trad,5.10c,1,60,34.02522,-116.15058
"Hard Times","Snickers - North Face > Snickers > Echo Rock Area > Joshua Tree National Park > California",https://www.mountainproject.com/route/112311214/hard-times,2.4,-1,Sport,5.10c,1,50,34.02522,-116.15058
Knightshift,"Snickers - North Face > Snickers > Echo Rock Area > Joshua Tree National Park > California",https://www.mountainproject.com/route/105956048/knightshift,2.3,-1,Trad,"5.10+ PG13",1,100,34.02522,-116.15058
"Rogue Robots","Pixar Wall > Pixar Wall Area > Echo Rock Area > Joshua Tree National Park > California",https://www.mountainproject.com/route/106634615/rogue-robots,1.9,-1,Trad,5.10c,1,45,34.03258,-116.15983
Walee,"Walee Rock > Pixar Wall Area > Echo Rock Area > Joshua Tree National Park > California",https://www.mountainproject.com/route/106634575/walee,-1.0,-1,"Trad, Aid","5.10c/d A1",1,,34.0309,-116.1593
"Snow White & the Seven Dwarfs","Upper Shorty Crag > Shorty Crag Area > Echo Rock Area > Joshua Tree National Park > California",https://www.mountainproject.com/route/107137590/snow-white-the-seven-dwarfs,2.0,-1,Trad,5.10+,1,40,34.02283,-116.15688
"Stoned Iguana","Aussie Snack Foods Wall > Echo Rock Area > Joshua Tree National Park > California",https://www.mountainproject.com/route/106784188/stoned-iguana,2.0,-1,Trad,5.10+,1,40,34.03094,-116.16989
Transformers,"Big Hunk (Southwest Face) > Big Hunk > Echo Rock Area > Joshua Tree National Park > California",https://www.mountainproject.com/route/107350626/transformers,2.1,-1,Sport,5.10+,1,75,34.02712,-116.15094
"Lucky 7","Poker Face > Big Hunk > Echo Rock Area > Joshua Tree National Park > California",https://www.mountainproject.com/route/111337575/lucky-7,2.3,-1,Sport,5.10b/c,1,50,34.02749,-116.15106
Sandworm,"Sandworm Rock > Echo Rock Area > Joshua Tree National Park > California",https://www.mountainproject.com/route/107361059/sandworm,1.0,-1,Trad,"5.10c R",1,50,34.02556,-116.14854
"Nickelodea (aka Burke on Auto)","The Cuckoo's Nest > Echo Rock Area > Joshua Tree National Park > California",https://www.mountainproject.com/route/112207115/nickelodea-aka-burke-on-auto,2.9,-1,Sport,5.10b/c,1,50,34.03357,-116.16007
"Meteorite Crack","John Yablonski Rock > Cap Rock Area > Sheep Pass Area > Joshua Tree National Park > California",https://www.mountainproject.com/route/107113732/meteorite-crack,2.3,-1,Trad,5.10c,1,30,33.98842,-116.16228
"Chinese Kayak","John Yablonski Rock > Cap Rock Area > Sheep Pass Area > Joshua Tree National Park > California",https://www.mountainproject.com/route/113798971/chinese-kayak,2.0,-1,Trad,5.10+,1,80,33.98842,-116.16228
"Slim Pickings Indirect","Cap Rock - South Face > Cap Rock > Cap Rock Area > Sheep Pass Area > Joshua Tree National Park > California",https://www.mountainproject.com/route/105724174/slim-pickings-indirect,1.8,-1,Trad,"5.10c PG13",1,70,33.98963,-116.16348
"Catch A Falling Car","Cap Rock - Southeast Face > Cap Rock > Cap Rock Area > Sheep Pass Area > Joshua Tree National Park > California",https://www.mountainproject.com/route/105964130/catch-a-falling-car,1.3,-1,Trad,5.10c,1,45,33.98974,-116.16321
"Devil Inside","Wally World > Cap Rock Area > Sheep Pass Area > Joshua Tree National Park > California",https://www.mountainproject.com/route/105723112/devil-inside,1.0,-1,Trad,5.10c,1,60,33.97293,-116.1638
"Three Bolts Closer To Divorce","East Wall Inner (Exorcist Area) > Hall of Horrors > Hall of Horrors Area > Sheep Pass Area > Joshua Tree National Park > California",https://www.mountainproject.com/route/106049869/three-bolts-closer-to-divorce,1.7,-1,Trad,5.10b/c,1,70,33.99983,-116.14687
"The Trouble With Tribbles","East Wall Inner (Exorcist Area) > Hall of Horrors > Hall of Horrors Area > Sheep Pass Area > Joshua Tree National Park > California",https://www.mountainproject.com/route/113732134/the-trouble-with-tribbles,2.0,-1,Trad,5.10c,1,100,33.99983,-116.14687
"Cat on a Hot Tin Roof","East Wall Inner (Exorcist Area) > Hall of Horrors > Hall of Horrors Area > Sheep Pass Area > Joshua Tree National Park > California",https://www.mountainproject.com/route/106402166/cat-on-a-hot-tin-roof,1.0,-1,Trad,5.10c,2,100,33.99983,-116.14687
"Shaking Hands with the Unemployed","West Wall Inner (Jane's Addiction Area) > Hall of Horrors > Hall of Horrors Area > Sheep Pass Area > Joshua Tree National Park > California",https://www.mountainproject.com/route/108019689/shaking-hands-with-the-unemployed,2.0,-1,Trad,"5.10c R",1,40,34.00035,-116.14728
"Pullups to Pasadena","West Wall Outer (Buckets to Burbank Area) > Hall of Horrors > Hall of Horrors Area > Sheep Pass Area > Joshua Tree National Park > California",https://www.mountainproject.com/route/105724321/pullups-to-pasadena,1.7,-1,Trad,5.10b/c,1,50,34.00097,-116.14794
"Knob Cheese","West Wall Outer (Buckets to Burbank Area) > Hall of Horrors > Hall of Horrors Area > Sheep Pass Area > Joshua Tree National Park > California",https://www.mountainproject.com/route/106770044/knob-cheese,1.3,-1,Trad,5.10+,1,50,34.00097,-116.14794
Hellbender,"East Wall Outer (Creature Feature Area) > Hall of Horrors > Hall of Horrors Area > Sheep Pass Area > Joshua Tree National Park > California",https://www.mountainproject.com/route/111150498/hellbender,1.0,-1,Trad,"5.10b/c PG13",1,35,33.99942,-116.14657
"First Eleven","Real Hall of Horrors > Hall of Horrors > Hall of Horrors Area > Sheep Pass Area > Joshua Tree National Park > California",https://www.mountainproject.com/route/107127009/first-eleven,1.5,-1,Trad,5.10c,1,60,34.00063,-116.14711
"Cosmic Dance of Sheba","King Dome - East Face > King Dome > Hall of Horrors Area > Sheep Pass Area > Joshua Tree National Park > California",https://www.mountainproject.com/route/105722440/cosmic-dance-of-sheba,1.5,-1,Trad,5.10c,1,40,34.00317,-116.14936
"Harley Queen","Saddle Rocks - Skirt  (West Face) > Saddle Rocks - Skirt > Saddle Rocks > Saddle Rocks Area > Sheep Pass Area > Joshua Tree National Park > California",https://www.mountainproject.com/route/105907923/harley-queen,3.1,-1,Trad,5.10c/d,2,150,33.99446,-116.14002
"Episcopalian Toothpick","Theoretical Boulder > Saddle Rocks Area > Sheep Pass Area > Joshua Tree National Park > California",https://www.mountainproject.com/route/105723427/episcopalian-toothpick,2.6,-1,Trad,5.10c,1,60,33.9947,-116.1393
"The Hustle","Dire Straits Rock > Saddle Rocks Area > Sheep Pass Area > Joshua Tree National Park > California",https://www.mountainproject.com/route/113750211/the-hustle,2.0,-1,TR,5.10c,1,40,33.9941,-116.1406
"Buckets of Blort","The Oyster Bar > Oyster Bar Area > Sheep Pass Area > Joshua Tree National Park > California",https://www.mountainproject.com/route/105931088/buckets-of-blort,1.6,-1,Trad,5.10c/d,1,33,33.9906,-116.14114
"Super Flapper","Conrad Rock - (S. Face) > Conrad Rock > Oyster Bar Area > Sheep Pass Area > Joshua Tree National Park > California",https://www.mountainproject.com/route/107978556/super-flapper,2.0,-1,Trad,5.10c,1,40,33.9894,-116.14343
"Shock Therapy","Split Personality Rock > The Asylum > Oyster Bar Area > Sheep Pass Area > Joshua Tree National Park > California",https://www.mountainproject.com/route/105723955/shock-therapy,2.6,-1,Sport,5.10c,1,40,33.99,-116.14243
"Schlock Therapy","Split Personality Rock > The Asylum > Oyster Bar Area > Sheep Pass Area > Joshua Tree National Park > California",https://www.mountainproject.com/route/108096129/schlock-therapy,1.0,-1,Trad,5.10c,1,50,33.99,-116.14243
"Banana Splits","North Cave Rock (South Face) > North Cave Rock > Cave Corridor > Cave Corridor Area > Sheep Pass Area > Joshua Tree National Park > California",https://www.mountainproject.com/route/106663436/banana-splits,1.0,-1,Trad,"5.10+ R",1,100,34.00145,-116.13631
"Elliot Mess","Junk Clump - South Face > Junk Clump > Cave Corridor Area > Sheep Pass Area > Joshua Tree National Park > California",https://www.mountainproject.com/route/107871641/elliot-mess,1.0,-1,TR,5.10+,1,45,34.00101,-116.13486
Birdland,"Wailing Sax Wall > Sheep Pass Group CG Area > Sheep Pass Area > Joshua Tree National Park > California",https://www.mountainproject.com/route/107259413/birdland,1.5,-1,Trad,5.10c,1,50,33.99851,-116.11956
"Flakey Puffs From Hell","Wailing Sax Wall > Sheep Pass Group CG Area > Sheep Pass Area > Joshua Tree National Park > California",https://www.mountainproject.com/route/107947061/flakey-puffs-from-hell,1.5,-1,TR,5.10c,1,50,33.99851,-116.11956
"Dwarf Star (aka Aftershock)","Small World Cliff > Sheep Pass Group CG Area > Sheep Pass Area > Joshua Tree National Park > California",https://www.mountainproject.com/route/106850409/dwarf-star-aka-aftershock,2.3,-1,Trad,5.10c,1,50,34.005,-116.1212
Nightline,"Television Wall > Group site 1 > Sheep Pass Group CG Area > Sheep Pass Area > Joshua Tree National Park > California",https://www.mountainproject.com/route/113927464/nightline,2.0,-1,Trad,5.10c,1,35,33.99815,-116.12123
"Crack  4","Isles Corridor - Left Side > Isles Corridor > Isles in the Sky > Split Rocks > Joshua Tree National Park > California",https://www.mountainproject.com/route/105816305/crack-4,1.8,-1,Trad,"5.10b/c R",1,40,34.00448,-116.05887
"Naked and Afraid","Isles in the Sky (Northeast Face) > Isles in the Sky > Split Rocks > Joshua Tree National Park > California",https://www.mountainproject.com/route/111061210/naked-and-afraid,2.6,-1,Sport,5.10b/c,1,60,34.0047,-116.05874
"Young Fire","Isles in the Sky (Northeast Face) > Isles in the Sky > Split Rocks > Joshua Tree National Park > California",https://www.mountainproject.com/route/113793286/young-fire,2.4,-1,Trad,"5.10c PG13",1,70,34.0047,-116.05874
"Safety Dance","Isles in the Sky (Northeast Face) > Isles in the Sky > Split Rocks > Joshua Tree National Park > California",https://www.mountainproject.com/route/105876289/safety-dance,2.0,-1,TR,5.10c,1,60,34.0047,-116.05874
"Slam Dance","Isles in the Sky (Northeast Face) > Isles in the Sky > Split Rocks > Joshua Tree National Park > California",https://www.mountainproject.com/route/105722071/slam-dance,1.3,-1,Trad,5.10c,1,60,34.0047,-116.05874
"Solar Oven","Isles in the Sky (Southeast Face) > Isles in the Sky > Split Rocks > Joshua Tree National Park > California",https://www.mountainproject.com/route/105858163/solar-oven,1.0,-1,Trad,5.10c,1,60,34.0041,-116.05903
"Punish the Mosquito","Grand Canyon - East Wall (W. Face) > Grand Canyon > Split Rocks > Joshua Tree National Park > California",https://www.mountainproject.com/route/105723904/punish-the-mosquito,1.5,-1,Trad,5.10c,1,40,34.00737,-116.0562
"The Potato Gun","Split Dome (North Rock) > Split Dome > Split Rocks > Joshua Tree National Park > California",https://www.mountainproject.com/route/105928102/the-potato-gun,1.0,-1,Sport,5.10c,1,40,34.01005,-116.05528
"Nuptual Sac","Split Dome (North Rock) > Split Dome > Split Rocks > Joshua Tree National Park > California",https://www.mountainproject.com/route/106808598/nuptual-sac,2.0,-1,Trad,5.10+,1,50,34.01005,-116.05528
"Bike Across America","Split Dome (South Rock) > Split Dome > Split Rocks > Joshua Tree National Park > California",https://www.mountainproject.com/route/106781705/bike-across-america,1.0,-1,Trad,5.10c,1,50,34.00969,-116.0549
"Nipple, The","Split Dome (South Rock) > Split Dome > Split Rocks > Joshua Tree National Park > California",https://www.mountainproject.com/route/105857781/nipple-the,0.0,-1,Trad,"5.10c R",1,80,34.00969,-116.0549
Rubicon,"Rubicon Formation > Split Rocks > Joshua Tree National Park > California",https://www.mountainproject.com/route/105725101/rubicon,3.9,-1,Trad,5.10c,1,80,34.006,-116.0572
"Pelvic Thrust","Graceland > Split Rocks > Joshua Tree National Park > California",https://www.mountainproject.com/route/105997335/pelvic-thrust,1.0,-1,Trad,"5.10c PG13",1,,34.0071,-116.0538
"Dick Van Dyke (aka Elvis is Everywhere)","Graceland > Split Rocks > Joshua Tree National Park > California",https://www.mountainproject.com/route/105724810/dick-van-dyke-aka-elvis-is-everywhere,2.4,-1,Sport,5.10c,1,37,34.0071,-116.0538
"Frozen at the Void","Frigid Tower > Split Rocks > Joshua Tree National Park > California",https://www.mountainproject.com/route/105857805/frozen-at-the-void,3.0,-1,Trad,"5.10c R",1,80,34.0116,-116.0543
"Morongo Child","Morongo Man Cliffs > Split Rocks > Joshua Tree National Park > California",https://www.mountainproject.com/route/105858195/morongo-child,1.5,-1,Trad,5.10c,1,80,34.018,-116.0637
"I Am Sparticus","SE Boulders > Split Rocks > Joshua Tree National Park > California",https://www.mountainproject.com/route/106772936/i-am-sparticus,2.0,-1,Sport,5.10c,1,45,34.0094,-116.0558
"Invisible Baby Jones","SE Boulders > Split Rocks > Joshua Tree National Park > California",https://www.mountainproject.com/route/106772896/invisible-baby-jones,2.0,-1,Sport,5.10+,1,45,34.0094,-116.0558
"Lively Up Yourself Homer","Brit Corridor > Screamer Rocks > Split Rocks > Joshua Tree National Park > California",https://www.mountainproject.com/route/105722584/lively-up-yourself-homer,2.0,-1,Trad,5.10c,1,60,34.0077,-116.0586
"Winter Wine","Conan's Corridor > Jumbo Rock Area > Joshua Tree National Park > California",https://www.mountainproject.com/route/105722269/winter-wine,2.2,-1,Trad,"5.10c R",1,60,33.9952,-116.0682
"Song of the Siren","Conan's Corridor > Jumbo Rock Area > Joshua Tree National Park > California",https://www.mountainproject.com/route/113793277/song-of-the-siren,2.0,-1,Trad,"5.10c R",1,60,33.9952,-116.0682
Halloweenis,"Halloween Rock > Jumbo Rock Area > Joshua Tree National Park > California",https://www.mountainproject.com/route/105723226/halloweenis,1.5,-1,Trad,5.10c,1,50,33.99383,-116.06067
Carnage,"Jumbo Rocks Corridor > Jumbo Rock Area > Joshua Tree National Park > California",https://www.mountainproject.com/route/105724768/carnage,1.0,-1,Trad,5.10c,1,80,33.99272,-116.0596
"Wild Brew Yonder","Cunning Rock, Southeast Face > Jumbo Rock Area > Joshua Tree National Park > California",https://www.mountainproject.com/route/105952581/wild-brew-yonder,1.3,-1,Trad,"5.10c PG13",1,70,34.00274,-116.057
"Double Duty","Sky King Rock > Jumbo Rock Area > Joshua Tree National Park > California",https://www.mountainproject.com/route/105851414/double-duty,2.0,-1,Trad,5.10c,1,60,33.99294,-116.05812
"Burnt Marshmallow","Sky King Rock > Jumbo Rock Area > Joshua Tree National Park > California",https://www.mountainproject.com/route/105851418/burnt-marshmallow,1.0,-1,Trad,5.10c,1,40,33.99294,-116.05812
"Against All Todds","New Sage Rock > Jumbo Rock Area > Joshua Tree National Park > California",https://www.mountainproject.com/route/105851471/against-all-todds,2.0,-1,Trad,"5.10c R",1,80,33.99357,-116.058
"Born to be a Cowboy","Cowboy Rock > Jumbo Rock Area > Joshua Tree National Park > California",https://www.mountainproject.com/route/116614842/born-to-be-a-cowboy,-1.0,-1,Trad,"5.10c R",1,40,34.00175,-116.05645
"When Lightning Strikes","Cowboy Rock > Jumbo Rock Area > Joshua Tree National Park > California",https://www.mountainproject.com/route/116614862/when-lightning-strikes,-1.0,-1,Trad,"5.10c R",1,40,34.00175,-116.05645
"The Space Between","Top Secret Tower > Jumbo Rock Area > Joshua Tree National Park > California",https://www.mountainproject.com/route/116183716/the-space-between,2.0,-1,Trad,5.10b/c,1,90,34.00215,-116.05898
"Spread Your Legs And Trust The Rubber !","Top Secret Tower > Jumbo Rock Area > Joshua Tree National Park > California",https://www.mountainproject.com/route/112310641/spread-your-legs-and-trust-the-rubber,2.7,-1,Trad,5.10c,1,75,34.00215,-116.05898
"Kaweah Way","Top Secret Tower > Jumbo Rock Area > Joshua Tree National Park > California",https://www.mountainproject.com/route/105856886/kaweah-way,3.3,-1,Trad,5.10c,1,55,34.00215,-116.05898
"Slip Slidin' Away","Zebra Cliffs East Face > Zebra Cliffs > Jumbo Rock Area > Joshua Tree National Park > California",https://www.mountainproject.com/route/105851610/slip-slidin-away,1.0,-1,Trad,5.10c,1,80,33.98512,-116.05645
"Cut Thin to Win","Zebra Cliffs East Face > Zebra Cliffs > Jumbo Rock Area > Joshua Tree National Park > California",https://www.mountainproject.com/route/105724390/cut-thin-to-win,2.1,-1,Trad,5.10c,1,50,33.98512,-116.05645
"Horse of a Different Color","Zebra Cliffs East Face > Zebra Cliffs > Jumbo Rock Area > Joshua Tree National Park > California",https://www.mountainproject.com/route/105725857/horse-of-a-different-color,2.0,-1,Sport,5.10c/d,1,50,33.98512,-116.05645
"Holden Down the Fort","Zebra Cliffs North Face > Zebra Cliffs > Jumbo Rock Area > Joshua Tree National Park > California",https://www.mountainproject.com/route/109537456/holden-down-the-fort,1.0,-1,TR,5.10c,1,35,33.98589,-116.05741
Fugly,"The Hen House > Jumbo Rock Area > Joshua Tree National Park > California",https://www.mountainproject.com/route/106757645/fugly,1.0,-1,Sport,5.10+,1,50,33.9867,-116.04526
"Chicken Coop","The Hen House > Jumbo Rock Area > Joshua Tree National Park > California",https://www.mountainproject.com/route/106785012/chicken-coop,2.0,-1,Trad,5.10+,1,40,33.9867,-116.04526
"Seam of the Crop","Dualism Crag > Jumbo Rock Area > Joshua Tree National Park > California",https://www.mountainproject.com/route/109680874/seam-of-the-crop,2.0,-1,"Trad, TR","5.10+ PG13",1,40,33.99492,-116.06754
"Personal Space","Rock Garden Valley - Left Side > Rock Garden Valley > Lost Horse Area > Joshua Tree National Park > California",https://www.mountainproject.com/route/105821531/personal-space,1.8,-1,TR,5.10c,1,60,34.0215,-116.1777
"Lewd and Lascivious Conduct","Rock Garden Valley - Left Side > Rock Garden Valley > Lost Horse Area > Joshua Tree National Park > California",https://www.mountainproject.com/route/105725428/lewd-and-lascivious-conduct,2.1,-1,Trad,"5.10c R",1,50,34.0215,-116.1777
"Moveable Feast","Hemingway Buttress (East Face Center) > Hemingway Buttress > Lost Horse Area > Joshua Tree National Park > California",https://www.mountainproject.com/route/106155304/moveable-feast,1.7,-1,Trad,"5.10c PG13",1,130,34.02427,-116.17832
"The Importance of Being Ernest","Hemingway Buttress (East Face Center) > Hemingway Buttress > Lost Horse Area > Joshua Tree National Park > California",https://www.mountainproject.com/route/105722470/the-importance-of-being-ernest,2.9,-1,Trad,"5.10c/d R",1,80,34.02427,-116.17832
Astropoodle,"Hemingway Buttress (East Face Right) > Hemingway Buttress > Lost Horse Area > Joshua Tree National Park > California",https://www.mountainproject.com/route/105846282/astropoodle,2.7,-1,Trad,5.10c,1,60,34.02459,-116.17916
"Sig Alert (aka Cast Up a Highway)","Upper Freeway Wall > Freeway Wall > Lost Horse Area > Joshua Tree National Park > California",https://www.mountainproject.com/route/105725653/sig-alert-aka-cast-up-a-highway,2.8,-1,Trad,5.10b/c,1,80,34.0233,-116.17866
Anacram,"Upper Freeway Wall > Freeway Wall > Lost Horse Area > Joshua Tree National Park > California",https://www.mountainproject.com/route/105722428/anacram,3.3,-1,Trad,5.10c,1,80,34.0233,-116.17866
"The Talking Fish","Upper Freeway Wall > Freeway Wall > Lost Horse Area > Joshua Tree National Park > California",https://www.mountainproject.com/route/105725200/the-talking-fish,2.0,-1,Trad,5.10c/d,1,80,34.0233,-116.17866
Unknown,"Super Creeps Wall > Lost Horse Area > Joshua Tree National Park > California",https://www.mountainproject.com/route/107871661/unknown,1.0,-1,Trad,5.10+,1,35,34.02115,-116.18367
"Lessons from Laeger (aka White Knuckles)","Imaginary Voyage Formation > Lost Horse Area > Joshua Tree National Park > California",https://www.mountainproject.com/route/113862209/lessons-from-laeger-aka-white-knuckles,3.0,-1,Trad,5.10c,1,55,34.02016,-116.17995
"Black Plastic Streetwalker","Imaginary Voyage Formation > Lost Horse Area > Joshua Tree National Park > California",https://www.mountainproject.com/route/105722563/black-plastic-streetwalker,2.8,-1,Trad,"5.10c PG13",1,60,34.02016,-116.17995
"The Fifth Dimension","Mel's Diner > Lost Horse Area > Joshua Tree National Park > California",https://www.mountainproject.com/route/112310476/the-fifth-dimension,3.0,-1,Trad,5.10c,1,45,34.0286,-116.1829
"Right Mel Crack","Mel's Diner > Lost Horse Area > Joshua Tree National Park > California",https://www.mountainproject.com/route/105722614/right-mel-crack,2.6,-1,Trad,5.10c,1,35,34.0286,-116.1829
"Scaried Treasure","Ranger Station Rock > Lost Horse Area > Joshua Tree National Park > California",https://www.mountainproject.com/route/111932994/scaried-treasure,1.0,-1,Trad,"5.10b/c PG13",1,50,34.01817,-116.1907
"Swain Song","Ranger Station Rock > Lost Horse Area > Joshua Tree National Park > California",https://www.mountainproject.com/route/111933035/swain-song,1.0,-1,Trad,"5.10c/d PG13",1,60,34.01817,-116.1907
"The Lizard Of Ahhs","Lloyd's Rock > Lost Horse Area > Joshua Tree National Park > California",https://www.mountainproject.com/route/105722956/the-lizard-of-ahhs,1.8,-1,Trad,5.10c,1,50,34.01748,-116.17877
"Micronesia Direct","Lloyd's Rock > Lost Horse Area > Joshua Tree National Park > California",https://www.mountainproject.com/route/106362802/micronesia-direct,1.7,-1,TR,5.10+,1,45,34.01748,-116.17877
"Todd Couple, The","Micro Crag > Lost Horse Area > Joshua Tree National Park > California",https://www.mountainproject.com/route/105843178/todd-couple-the,1.9,-1,Trad,5.10c,1,60,34.03815,-116.18563
"Cliff Hanger","Jimmy Cliff - East Face > Jimmy Cliff > Lost Horse Area > Joshua Tree National Park > California",https://www.mountainproject.com/route/105931803/cliff-hanger,1.8,-1,Trad,"5.10+ PG13",1,50,34.01287,-116.18063
"Tails of Poodles","Banana Cracks > Lost Horse Area > Joshua Tree National Park > California",https://www.mountainproject.com/route/105846255/tails-of-poodles,2.0,-1,Trad,5.10c,1,40,34.02539,-116.17712
"C Sharp Roof","Voice's Crag > Lost Horse Area > Joshua Tree National Park > California",https://www.mountainproject.com/route/105882344/c-sharp-roof,1.0,-1,Trad,5.10c,1,40,34.03955,-116.18571
"Jelly Roll Morton","Jellystone Southwest Face > Jellystone > Lost Horse Area > Joshua Tree National Park > California",https://www.mountainproject.com/route/111693340/jelly-roll-morton,1.0,-1,TR,5.10b/c,1,65,34.03299,-116.18474
Slapstick,"Jellystone Southwest Face > Jellystone > Lost Horse Area > Joshua Tree National Park > California",https://www.mountainproject.com/route/106296792/slapstick,1.8,-1,Sport,5.10b/c,1,40,34.03299,-116.18474
"Palm Pilot","Jellystone Southwest Face > Jellystone > Lost Horse Area > Joshua Tree National Park > California",https://www.mountainproject.com/route/106352723/palm-pilot,2.0,-1,Trad,5.10c/d,1,60,34.03299,-116.18474
"Let It Be","Beetle Buttress > Lost Horse Area > Joshua Tree National Park > California",https://www.mountainproject.com/route/105903376/let-it-be,3.0,-1,Trad,5.10b/c,1,60,34.01487,-116.17682
"Granulator, The","Filipino Wall > Lost Horse Area > Joshua Tree National Park > California",https://www.mountainproject.com/route/105846517/granulator-the,2.0,-1,Trad,5.10c,1,80,34.02475,-116.17982
"Quantum Jump","Copenhagen Wall > Lost Horse Area > Joshua Tree National Park > California",https://www.mountainproject.com/route/105846537/quantum-jump,3.3,-1,Trad,5.10c,1,80,34.02293,-116.17802
Fah-Q,"Brian's Crag > Lost Horse Area > Joshua Tree National Park > California",https://www.mountainproject.com/route/107634984/fah-q,2.0,-1,Sport,5.10c,1,40,34.03281,-116.18702
"The Da Vinci Code","Brian's Crag > Lost Horse Area > Joshua Tree National Park > California",https://www.mountainproject.com/route/106787223/the-da-vinci-code,1.0,-1,Trad,5.10c,1,50,34.03281,-116.18702
"Tourette's Syndrome","The Cathouse > Lost Horse Area > Joshua Tree National Park > California",https://www.mountainproject.com/route/106663577/tourettes-syndrome,1.9,-1,Trad,5.10c,1,50,34.01984,-116.17534
"The Reach Around","Kaleidoscope Wall > Lost Horse Area > Joshua Tree National Park > California",https://www.mountainproject.com/route/105947560/the-reach-around,1.0,-1,Trad,5.10c/d,1,80,34.025,-116.1971
Pugsley,"Dairy Queen Wall - Left Side > Dairy Queen Wall > Lost Horse Area > Joshua Tree National Park > California",https://www.mountainproject.com/route/112207840/pugsley,2.6,-1,Sport,5.10c,1,70,34.02158,-116.17704
"The Foot Massage","Dairy Queen Wall - Left Side > Dairy Queen Wall > Lost Horse Area > Joshua Tree National Park > California",https://www.mountainproject.com/route/105864537/the-foot-massage,1.7,-1,Trad,5.10c/d,1,70,34.02158,-116.17704
"Right Route","Left Hand of Darkness - E. Face > Left Hand of Darkness > Lost Horse Area > Joshua Tree National Park > California",https://www.mountainproject.com/route/105931087/right-route,2.5,-1,Trad,5.10c,1,45,34.02851,-116.1785
"Grandpa Gander","Left Hand of Darkness - E. Face > Left Hand of Darkness > Lost Horse Area > Joshua Tree National Park > California",https://www.mountainproject.com/route/105723511/grandpa-gander,1.9,-1,Trad,5.10c,1,40,34.02851,-116.1785
"Gander Slander","Left Hand of Darkness - E. Face > Left Hand of Darkness > Lost Horse Area > Joshua Tree National Park > California",https://www.mountainproject.com/route/111881373/gander-slander,1.0,-1,TR,5.10+,1,40,34.02851,-116.1785
"Mighty Mouse","Super Heros Wall > Lost Horse Area > Joshua Tree National Park > California",https://www.mountainproject.com/route/106296764/mighty-mouse,2.8,-1,Trad,5.10b/c,1,60,34.01998,-116.18453
Ceremony,"Atlantis Wall - Right > Atlantis Wall > Atlantis Area > Lost Horse Area > Joshua Tree National Park > California",https://www.mountainproject.com/route/105722413/ceremony,2.1,-1,Trad,5.10c,1,50,34.01886,-116.18016
Sockeye,"The Kenai Crag > Lost Horse Area > Joshua Tree National Park > California",https://www.mountainproject.com/route/114008073/sockeye,2.3,-1,Sport,5.10b/c,1,60,34.03238,-116.18941
"Marital Sin","Dissolution Rock > Barker Dam Area > Joshua Tree National Park > California",https://www.mountainproject.com/route/105722422/marital-sin,2.0,-1,Trad,5.10c,1,50,34.02772,-116.14099
"Freriks Is A Daddy","The Black Rocks > Barker Dam Area > Joshua Tree National Park > California",https://www.mountainproject.com/route/105722698/freriks-is-a-daddy,1.5,-1,Trad,5.10b/c,1,50,34.02731,-116.13062
"My President Is Addicted To War","The Black Rocks > Barker Dam Area > Joshua Tree National Park > California",https://www.mountainproject.com/route/105724483/my-president-is-addicted-to-war,1.0,-1,Trad,5.10c/d,1,50,34.02731,-116.13062
"Exit Stage Left","Escape Rock (Southwest Face) > Escape Rock > Barker Dam Area > Joshua Tree National Park > California",https://www.mountainproject.com/route/105866848/exit-stage-left,1.5,-1,TR,5.10b/c,1,165,34.0322,-116.14779
"Hallow Friction","Rock of Ages > Barker Dam Area > Joshua Tree National Park > California",https://www.mountainproject.com/route/106326987/hallow-friction,1.5,-1,Trad,"5.10c R",1,80,34.03194,-116.14739
"The Friendly Ghost","Sleepy Hollow > Barker Dam Area > Joshua Tree National Park > California",https://www.mountainproject.com/route/110008510/the-friendly-ghost,1.8,-1,TR,5.10b/c,1,40,34.02557,-116.14595
"A First Time For Everything","Becky's Buttress > Becky's Buttress Area > Belle Campground Area > Joshua Tree National Park > California",https://www.mountainproject.com/route/108635936/a-first-time-for-everything,3.0,-1,Trad,5.10+,1,85,34.0087,-116.0098
"Farting Horse","Tollakson's Tower > Becky's Buttress Area > Belle Campground Area > Joshua Tree National Park > California",https://www.mountainproject.com/route/105792883/farting-horse,1.5,-1,Trad,5.10c,1,20,34.0084,-116.01
"Big Sandy Bound (aka The Wetlands President)","Half Rock > Belle Campground > Belle Campground Area > Joshua Tree National Park > California",https://www.mountainproject.com/route/105791597/big-sandy-bound-aka-the-wetlands-president,1.3,-1,Trad,"5.10c R",1,30,33.99896,-116.01997
"Coyote Bait","McClure's Clump > Belle Campground > Belle Campground Area > Joshua Tree National Park > California",https://www.mountainproject.com/route/106972757/coyote-bait,2.0,-1,TR,5.10c,1,50,34.00211,-116.01815
Trix,"Cereal Rock > Steve Canyon Area > The Outback > Joshua Tree National Park > California",https://www.mountainproject.com/route/108590430/trix,2.0,-1,Trad,5.10b/c,1,90,34.02001,-116.16808
Diamondback,"Sidewinder Rock - West Face > Steve Canyon > Steve Canyon Area > The Outback > Joshua Tree National Park > California",https://www.mountainproject.com/route/105722092/diamondback,2.8,-1,Trad,"5.10c PG13",1,70,34.01865,-116.16611
"Land of the Long White Cloud","Sidewinder Rock - East Face > Steve Canyon > Steve Canyon Area > The Outback > Joshua Tree National Park > California",https://www.mountainproject.com/route/105835930/land-of-the-long-white-cloud,1.5,-1,Trad,5.10c,1,60,34.01885,-116.16599
"Fist Full of Crystals","Grain Surgery Wall > Steve Canyon > Steve Canyon Area > The Outback > Joshua Tree National Park > California",https://www.mountainproject.com/route/105835911/fist-full-of-crystals,1.8,-1,Trad,"5.10c R",1,100,34.01915,-116.16642
"The Decompensator of Lhasa","Grain Surgery Wall > Steve Canyon > Steve Canyon Area > The Outback > Joshua Tree National Park > California",https://www.mountainproject.com/route/105725059/the-decompensator-of-lhasa,3.3,-1,Trad,5.10c/d,1,70,34.01915,-116.16642
"Orc Sighs","The Orc Wall > Steve Canyon > Steve Canyon Area > The Outback > Joshua Tree National Park > California",https://www.mountainproject.com/route/105813261/orc-sighs,2.5,-1,Trad,5.10c,1,60,34.01879,-116.16653
"A Woman's Work is Never Done","Labor Dome > The Outback > Joshua Tree National Park > California",https://www.mountainproject.com/route/105722542/a-womans-work-is-never-done,2.3,-1,Trad,5.10c,1,50,34.02111,-116.16682
"Absolute Zero","Rock Hudson > The Outback > Joshua Tree National Park > California",https://www.mountainproject.com/route/105724003/absolute-zero,1.8,-1,Trad,5.10c,1,60,34.02117,-116.1629
Ipecac,"Rock Hudson > The Outback > Joshua Tree National Park > California",https://www.mountainproject.com/route/105939702/ipecac,1.7,-1,Trad,5.10+,1,23,34.02117,-116.1629
"The Mechanic","Hitman Rock > The Outback > Joshua Tree National Park > California",https://www.mountainproject.com/route/107349115/the-mechanic,1.7,-1,TR,5.10c,1,50,34.0201,-116.16754
Skinwalker,"Hitman Rock > The Outback > Joshua Tree National Park > California",https://www.mountainproject.com/route/105835958/skinwalker,1.4,-1,Trad,5.10c,1,60,34.0201,-116.16754
"Pinch a Smelly Scrutinizer","The Heap > The Outback > Joshua Tree National Park > California",https://www.mountainproject.com/route/105725602/pinch-a-smelly-scrutinizer,2.8,-1,Trad,5.10c,1,80,34.02048,-116.16593
"Black Widow","Wooly Spider Boulder > Stirrup Tank > Joshua Tree National Park > California",https://www.mountainproject.com/route/105725173/black-widow,0.0,-1,Trad,5.10c,1,40,33.96049,-116.01741
"Crack Kills","Stirrup Rock - North Face > Stirrup Rock > Stirrup Tank > Joshua Tree National Park > California",https://www.mountainproject.com/route/105942953/crack-kills,2.3,-1,Trad,5.10c,1,35,33.96047,-116.02047
"Fear of a Black Planet","Stirrup Rock - South Face > Stirrup Rock > Stirrup Tank > Joshua Tree National Park > California",https://www.mountainproject.com/route/105940992/fear-of-a-black-planet,1.0,-1,Trad,"5.10c PG13",1,60,33.96024,-116.02029
"Peter Eater Pumpkin Eater","Stirrup Rock - South Face > Stirrup Rock > Stirrup Tank > Joshua Tree National Park > California",https://www.mountainproject.com/route/105722680/peter-eater-pumpkin-eater,2.8,-1,Trad,5.10+,1,70,33.96024,-116.02029
Canalizo,"Zippy Rock > Stirrup Tank > Joshua Tree National Park > California",https://www.mountainproject.com/route/105857574/canalizo,2.1,-1,Trad,5.10c,1,50,33.95941,-116.01935
"Shongo Pavi","Zippy Rock > Stirrup Tank > Joshua Tree National Park > California",https://www.mountainproject.com/route/105857583/shongo-pavi,2.3,-1,Trad,5.10c,1,40,33.95941,-116.01935
"Does Royalty Give Head?","Zippy Rock > Stirrup Tank > Joshua Tree National Park > California",https://www.mountainproject.com/route/105857587/does-royalty-give-head,0.0,-1,Trad,5.10c,1,30,33.95941,-116.01935
"The Black Stallion","Zippy Rock > Stirrup Tank > Joshua Tree National Park > California",https://www.mountainproject.com/route/108201434/the-black-stallion,2.3,-1,Sport,5.10+,1,30,33.95941,-116.01935
"Last Date","Rumble Crags > Stirrup Tank > Joshua Tree National Park > California",https://www.mountainproject.com/route/105857045/last-date,2.0,-1,Trad,5.10c,1,40,33.96013,-116.0156
"I Touch The Future","Routes East of Hershey Kiss > Stirrup Tank > Joshua Tree National Park > California",https://www.mountainproject.com/route/105857055/i-touch-the-future,2.7,-1,"Trad, TR",5.10c,1,25,33.96063,-116.01359
"Zen Goblins","Hai Karate Rock > Stirrup Tank > Joshua Tree National Park > California",https://www.mountainproject.com/route/108162858/zen-goblins,2.0,-1,Trad,5.10b/c,1,40,33.9605,-116.0187
"Pocket Poodle","Pyramid Tower and The Stirrup > Stirrup Tank > Joshua Tree National Park > California",https://www.mountainproject.com/route/107947076/pocket-poodle,1.0,-1,TR,5.10c,1,70,33.95922,-116.01677
"The Gettysburger","The Milepost > Roadside Rocks > Joshua Tree National Park > California",https://www.mountainproject.com/route/105725242/the-gettysburger,1.7,-1,Trad,5.10c,1,50,34.02279,-116.17344
"Scrambled Legs","The Milepost > Roadside Rocks > Joshua Tree National Park > California",https://www.mountainproject.com/route/105725800/scrambled-legs,1.0,-1,Trad,5.10c,1,50,34.02279,-116.17344
"How 'bout It?","Dihedral Rock > Roadside Rocks > Joshua Tree National Park > California",https://www.mountainproject.com/route/106913553/how-bout-it,2.7,-1,Trad,5.10c/d,1,70,34.01978,-116.17158
"Fire or Retire","Jam or Slam Rock (SW Face) > Jam or Slam Rock > Roadside Rocks > Joshua Tree National Park > California",https://www.mountainproject.com/route/105723664/fire-or-retire,2.6,-1,Trad,5.10c,1,50,34.01777,-116.16902
"Yabo Phone Home","Pep Boys Crag > Roadside Rocks > Joshua Tree National Park > California",https://www.mountainproject.com/route/105837416/yabo-phone-home,2.2,-1,Trad,5.10c,1,40,34.02046,-116.17247
"Lean on Me","Bush Dome > Roadside Rocks > Joshua Tree National Park > California",https://www.mountainproject.com/route/105837412/lean-on-me,2.0,-1,Trad,5.10c,1,80,34.02889,-116.18371
"Adult Books","Watts Towers > Roadside Rocks > Joshua Tree National Park > California",https://www.mountainproject.com/route/110172355/adult-books,2.0,-1,Trad,5.10c,1,60,34.0213,-116.1728
"No Guts, No Glory","Glory Dome > Roadside Rocks > Joshua Tree National Park > California",https://www.mountainproject.com/route/105892902/no-guts-no-glory,1.0,-1,Trad,5.10c,1,70,34.0195,-116.17121
"Gordo Started It","Swidgeteria, The > Roadside Rocks > Joshua Tree National Park > California",https://www.mountainproject.com/route/106784178/gordo-started-it,1.0,-1,Trad,5.10c,1,50,34.01901,-116.17117
"Laeger Domain","Summit or Plummet Rock > Roadside Rocks > Joshua Tree National Park > California",https://www.mountainproject.com/route/105840627/laeger-domain,2.4,-1,Trad,5.10b/c,1,80,34.01934,-116.17024
"Summit or Plummet","Summit or Plummet Rock > Roadside Rocks > Joshua Tree National Park > California",https://www.mountainproject.com/route/111881390/summit-or-plummet,1.0,-1,"Trad, TR","5.10c PG13",1,25,34.01934,-116.17024
"Freeway Jam","X Factor Dome > Roadside Rocks > Joshua Tree National Park > California",https://www.mountainproject.com/route/117089761/freeway-jam,2.0,-1,Trad,5.10c,1,40,34.02288,-116.16969
"Studebaker Hawk","The Aviary > Roadside Rocks > Joshua Tree National Park > California",https://www.mountainproject.com/route/106775698/studebaker-hawk,2.5,-1,Trad,5.10c,1,40,34.02434,-116.16968
"Kamikaze Crack","Beak Boulder > Loveland > Joshua Tree National Park > California",https://www.mountainproject.com/route/106381678/kamikaze-crack,3.2,-1,Trad,5.10c,1,50,34.02598,-116.05111
"Fool For A Pretty Face","Loveland North > Loveland > Joshua Tree National Park > California",https://www.mountainproject.com/route/107104392/fool-for-a-pretty-face,3.0,-1,Trad,5.10c,1,80,34.02845,-116.05697
"Left Sawdust Crack","Trashcan Rock - East Face > Trashcan Rock > Quail Springs Area > Joshua Tree National Park > California",https://www.mountainproject.com/route/105722632/left-sawdust-crack,2.2,-1,Trad,5.10c,1,40,34.04031,-116.19715
Hermanutic,"Trashcan Rock - East Face > Trashcan Rock > Quail Springs Area > Joshua Tree National Park > California",https://www.mountainproject.com/route/105722989/hermanutic,2.3,-1,Trad,"5.10c R",1,50,34.04031,-116.19715
Profundity,"Trashcan Rock - West Face > Trashcan Rock > Quail Springs Area > Joshua Tree National Park > California",https://www.mountainproject.com/route/105724249/profundity,2.1,-1,Trad,"5.10c PG13",1,40,34.04025,-116.19743
"Field and Stream","White Cliffs of Dover - Left Side > White Cliffs of Dover > Quail Springs Area > Joshua Tree National Park > California",https://www.mountainproject.com/route/107816748/field-and-stream,3.5,-1,Trad,5.10c,1,115,34.02919,-116.199
"Sen Blen","White Cliffs of Dover - Left Side > White Cliffs of Dover > Quail Springs Area > Joshua Tree National Park > California",https://www.mountainproject.com/route/105723484/sen-blen,1.8,-1,Trad,5.10c,1,50,34.02919,-116.199
"Stone Hinge","White Cliffs of Dover - Left Side > White Cliffs of Dover > Quail Springs Area > Joshua Tree National Park > California",https://www.mountainproject.com/route/107331583/stone-hinge,2.0,-1,Trad,5.10c,1,45,34.02919,-116.199
"High Anxiety","White Cliffs of Dover - Left Side > White Cliffs of Dover > Quail Springs Area > Joshua Tree National Park > California",https://www.mountainproject.com/route/106921243/high-anxiety,2.0,-1,Trad,5.10c/d,1,130,34.02919,-116.199
"Red Tide","White Cliffs of Dover - Right Side > White Cliffs of Dover > Quail Springs Area > Joshua Tree National Park > California",https://www.mountainproject.com/route/105725569/red-tide,2.2,-1,Sport,5.10c,1,30,34.02929,-116.20041
"All That Glitters is not Golden","AFPA Rock > Quail Springs Area > Joshua Tree National Park > California",https://www.mountainproject.com/route/106983231/all-that-glitters-is-not-golden,2.0,-1,TR,5.10b/c,1,80,34.03989,-116.19486
McDonald-Wilson,"AFPA Rock > Quail Springs Area > Joshua Tree National Park > California",https://www.mountainproject.com/route/105952589/mcdonald-wilson,2.0,-1,Trad,"5.10c R",1,80,34.03989,-116.19486
"Spaghetti Sauce Sunset","AFPA Rock > Quail Springs Area > Joshua Tree National Park > California",https://www.mountainproject.com/route/105724273/spaghetti-sauce-sunset,1.8,-1,Trad,5.10c,1,50,34.03989,-116.19486
"James Brown's Celebrity Hot Tub Party","Vagmarken Buttress Right > Vagmarken Hill > Quail Springs Area > Joshua Tree National Park > California",https://www.mountainproject.com/route/106642607/james-browns-celebrity-hot-tub-party,2.0,-1,Trad,5.10b/c,1,80,34.03726,-116.14539
"Skeleton Crew","The Pet Cemetery > Negropolis Hillside > Quail Springs Area > Joshua Tree National Park > California",https://www.mountainproject.com/route/105971159/skeleton-crew,1.5,-1,Sport,5.10c/d,1,35,34.06467,-116.22575
"Right Swain Crack","Main Gate Rock > Quail Springs Area > Joshua Tree National Park > California",https://www.mountainproject.com/route/111203288/right-swain-crack,1.0,-1,Trad,5.10c,1,25,34.08955,-116.25538
"The Shark Fin","The Shark Fin > Queen Mountain > Joshua Tree National Park > California",https://www.mountainproject.com/route/105724489/the-shark-fin,1.3,-1,Trad,5.10c,1,70,34.0481,-116.1021
Delusions,"Frontier Wall > Queen Mountain > Joshua Tree National Park > California",https://www.mountainproject.com/route/107113761/delusions,1.0,-1,Trad,5.10c,1,80,34.0481,-116.1021
Icon,"Olympic Dome > Queen Mountain > Joshua Tree National Park > California",https://www.mountainproject.com/route/105724528/icon,3.5,-1,Trad,5.10c,1,80,34.0481,-116.1021
"Prickly Pare","The Cactus Slump > Queen Mountain > Joshua Tree National Park > California",https://www.mountainproject.com/route/106712256/prickly-pare,1.0,-1,Trad,5.10c,1,60,34.0481,-116.1021
"5 Barmaids in My Pocket","Tower of Power > Queen Mountain > Joshua Tree National Park > California",https://www.mountainproject.com/route/106782365/5-barmaids-in-my-pocket,1.0,-1,Trad,5.10b/c,1,100,34.0481,-116.1021
Spiritworld,"Dreamscape Dome > Queen Mountain > Joshua Tree National Park > California",https://www.mountainproject.com/route/107121818/spiritworld,3.0,-1,Trad,5.10c,1,150,34.0481,-116.1021
"Raving Skinhead","41-Minute Dome > Queen Mountain > Joshua Tree National Park > California",https://www.mountainproject.com/route/107157359/raving-skinhead,-1.0,-1,Trad,5.10c,1,150,34.0481,-116.1021
"Peer Pressure","Cirque of the Climbables - Right Side > Cirque of the Climbables > Queen Mountain > Joshua Tree National Park > California",https://www.mountainproject.com/route/105724702/peer-pressure,2.0,-1,Trad,5.10c,1,50,34.0481,-116.1021
"Christmas Tree Arete","Cirque of the Climbables - Right Side > Cirque of the Climbables > Queen Mountain > Joshua Tree National Park > California",https://www.mountainproject.com/route/107134696/christmas-tree-arete,1.5,-1,Trad,5.10c,1,50,34.0481,-116.1021
"Grain Dance","Locomotion Rock > Real Hidden Valley > Joshua Tree National Park > California",https://www.mountainproject.com/route/105721789/grain-dance,2.1,-1,TR,5.10c/d,1,50,34.01343,-116.16796
"Child's Play","The Thin Wall > Real Hidden Valley > Joshua Tree National Park > California",https://www.mountainproject.com/route/105721951/childs-play,2.7,-1,Trad,"5.10c R",1,60,34.01437,-116.17276
"Martin Quits","Gateway Rock > Real Hidden Valley > Joshua Tree National Park > California",https://www.mountainproject.com/route/105725809/martin-quits,2.6,-1,Trad,5.10c,1,40,34.01242,-116.16858
Cowabunga,"Upper Cow Rock > Real Hidden Valley > Joshua Tree National Park > California",https://www.mountainproject.com/route/105723178/cowabunga,1.0,-1,Trad,5.10c,1,,34.01678,-116.17473
"Udder Chaos","Upper Cow Rock > Real Hidden Valley > Joshua Tree National Park > California",https://www.mountainproject.com/route/105723184/udder-chaos,2.3,-1,Sport,5.10c,1,60,34.01678,-116.17473
"Hare Today, Gone Tomorrow","Arid Piles - Northwest Face > Arid Piles > Real Hidden Valley > Joshua Tree National Park > California",https://www.mountainproject.com/route/107457659/hare-today-gone-tomorrow,1.0,-1,TR,5.10c,1,60,34.01081,-116.17847
"Edge of Doom","Arid Piles - Northwest Face > Arid Piles > Real Hidden Valley > Joshua Tree National Park > California",https://www.mountainproject.com/route/105845222/edge-of-doom,2.8,-1,Trad,"5.10c PG13",1,80,34.01081,-116.17847
"Brief Case","The Wailing Wall > Real Hidden Valley > Joshua Tree National Park > California",https://www.mountainproject.com/route/105725365/brief-case,1.5,-1,TR,5.10c,1,40,34.0145,-116.1713
"Good Grief","The Wailing Wall > Real Hidden Valley > Joshua Tree National Park > California",https://www.mountainproject.com/route/105725392/good-grief,1.9,-1,Trad,5.10c,1,40,34.0145,-116.1713
"Pussy Galore","The Wailing Wall > Real Hidden Valley > Joshua Tree National Park > California",https://www.mountainproject.com/route/107671179/pussy-galore,1.5,-1,Trad,5.10c/d,1,,34.0145,-116.1713
"Lazy Rhymer","Mount Grossvogel > Real Hidden Valley > Joshua Tree National Park > California",https://www.mountainproject.com/route/111449938/lazy-rhymer,1.7,-1,"Trad, TR",5.10c,1,45,34.01032,-116.18083
Roboslab,"Mount Grossvogel > Real Hidden Valley > Joshua Tree National Park > California",https://www.mountainproject.com/route/113716690/roboslab,2.0,-1,TR,5.10c/d,1,50,34.01032,-116.18083
"Rhoid Warrior","Three Pile Island > Real Hidden Valley > Joshua Tree National Park > California",https://www.mountainproject.com/route/107160806/rhoid-warrior,1.0,-1,Trad,5.10c,1,80,34.01366,-116.16672
Hurricane,"Pitted Rock > Real Hidden Valley > Joshua Tree National Park > California",https://www.mountainproject.com/route/106836568/hurricane,1.0,-1,Trad,5.10c,1,45,34.01302,-116.16798
"The Gay Germans","Pitted Rock > Real Hidden Valley > Joshua Tree National Park > California",https://www.mountainproject.com/route/106770155/the-gay-germans,1.0,-1,Trad,5.10c,1,50,34.01302,-116.16798
unknown,"Sports Challenge Rock - West Face > Sports Challenge Rock > Real Hidden Valley > Joshua Tree National Park > California",https://www.mountainproject.com/route/108509171/unknown,3.0,-1,Trad,5.10b/c,1,55,34.01401,-116.1691
"Clean and Jerk","Sports Challenge Rock - East Face > Sports Challenge Rock > Real Hidden Valley > Joshua Tree National Park > California",https://www.mountainproject.com/route/105721792/clean-and-jerk,3.7,-1,Trad,5.10c,1,80,34.01415,-116.16906
"Herbie's Hideaway","Dodo Buttress > Houser Buttress Area > Real Hidden Valley Vicinity > Real Hidden Valley > Joshua Tree National Park > California",https://www.mountainproject.com/route/106619256/herbies-hideaway,1.0,-1,Trad,"5.10c R",1,40,34.01063,-116.17111
"Making Wind","Miles Of Piles Rock - West Face > Real Hidden Valley Vicinity > Real Hidden Valley > Joshua Tree National Park > California",https://www.mountainproject.com/route/106584134/making-wind,1.0,-1,Trad,5.10b/c,1,60,34.01181,-116.17337
"Pile In The Sky","Turtle Rock - East Face > Turtle Rock > Real Hidden Valley Vicinity > Real Hidden Valley > Joshua Tree National Park > California",https://www.mountainproject.com/route/107110713/pile-in-the-sky,2.0,-1,Trad,5.10c,1,40,34.01109,-116.16637
"Cripple Crack","Miles of Piles Rock - East Face > Real Hidden Valley Vicinity > Real Hidden Valley > Joshua Tree National Park > California",https://www.mountainproject.com/route/107113723/cripple-crack,3.0,-1,Trad,5.10c,2,120,34.01183,-116.1733
"Jolly Roger","Fraggle Rock > Desert Queen Mine > Joshua Tree National Park > California",https://www.mountainproject.com/route/108108332/jolly-roger,2.0,-1,Sport,5.10c,1,45,34.02244,-116.06147
"The Still","Fraggle Rock > Desert Queen Mine > Joshua Tree National Park > California",https://www.mountainproject.com/route/105724717/the-still,2.0,-1,Trad,5.10c,1,50,34.02244,-116.06147
"Scattered Remains","Fraggle Rock > Desert Queen Mine > Joshua Tree National Park > California",https://www.mountainproject.com/route/105723070/scattered-remains,1.7,-1,Trad,5.10c,1,70,34.02244,-116.06147
"The Goldigger","Silverado Area > Desert Queen Mine > Joshua Tree National Park > California",https://www.mountainproject.com/route/105723115/the-goldigger,1.5,-1,Trad,5.10c,1,90,34.02196,-116.06769
"Buffalo Gun","Silverado Area > Desert Queen Mine > Joshua Tree National Park > California",https://www.mountainproject.com/route/105724744/buffalo-gun,2.0,-1,Trad,5.10+,1,60,34.02196,-116.06769
Xenalmorph,"The Towers > Desert Queen Mine > Joshua Tree National Park > California",https://www.mountainproject.com/route/109965808/xenalmorph,2.3,-1,Trad,"5.10c R",1,50,34.0231,-116.0679
"Get Off My Sister","Queen Crimson Dome > Desert Queen Mine > Joshua Tree National Park > California",https://www.mountainproject.com/route/106788515/get-off-my-sister,1.0,-1,Trad,5.10+,1,50,34.0214,-116.06832
"Unfriendly Hands","Dike Rock > Desert Queen Mine > Joshua Tree National Park > California",https://www.mountainproject.com/route/105835876/unfriendly-hands,0.0,-1,Trad,5.10c,1,80,34.02196,-116.06769
"One Pop, No Stop","Desert Queen Dome > Desert Queen Mine > Joshua Tree National Park > California",https://www.mountainproject.com/route/105835883/one-pop-no-stop,2.0,-1,Trad,5.10c,1,80,34.02196,-116.06769
"Now Go Home","Mary Worth Buttress > Comic Book Area > Joshua Tree National Park > California",https://www.mountainproject.com/route/118643817/now-go-home,2.0,-1,TR,5.10c,1,90,34.01491,-116.14407
"Welcome to Joshua Tree","Mary Worth Buttress > Comic Book Area > Joshua Tree National Park > California",https://www.mountainproject.com/route/105721999/welcome-to-joshua-tree,2.7,-1,Trad,"5.10c PG13",2,170,34.01491,-116.14407
"Distant Episode","Mary Worth Buttress > Comic Book Area > Joshua Tree National Park > California",https://www.mountainproject.com/route/105800670/distant-episode,1.4,-1,Trad,5.10c,1,70,34.01491,-116.14407
"Zombie Jesus Day","Box Canyon Area > Comic Book Area > Joshua Tree National Park > California",https://www.mountainproject.com/route/116122697/zombie-jesus-day,3.0,-1,Sport,5.10b/c,1,80,34.01207,-116.14334
"Take It For Granite","The Comic Strip - N Face > The Comic Strip > Comic Book Area > Joshua Tree National Park > California",https://www.mountainproject.com/route/105901389/take-it-for-granite,2.7,-1,Trad,"5.10c PG13",1,70,34.01331,-116.14305
"Black Hills Gold","South Dakota Dome > The Dakota Domes > Comic Book Area > Joshua Tree National Park > California",https://www.mountainproject.com/route/110034336/black-hills-gold,2.5,-1,Sport,5.10c,1,50,34.01886,-116.14812
T-N-T,"Watergate Rock > Watergate Rock Area > Comic Book Area > Joshua Tree National Park > California",https://www.mountainproject.com/route/105723574/t-n-t,2.6,-1,Sport,5.10c,1,40,34.0115,-116.14631
"Walk of Fame","Miracle Mile Boulder > North Hollywood > Hollywood Area > OZ Area > Joshua Tree National Park > California",https://www.mountainproject.com/route/105797082/walk-of-fame,2.6,-1,Sport,5.10c,1,40,34.03307,-116.05354
"Wet Behind, Dry Wallet","Hollywood > Hollywood Area > OZ Area > Joshua Tree National Park > California",https://www.mountainproject.com/route/106788357/wet-behind-dry-wallet,3.0,-1,Sport,5.10c,1,60,34.02932,-116.05236
"Endangered Species","The Tusk > Magic Mountain Area > OZ Area > Joshua Tree National Park > California",https://www.mountainproject.com/route/105798029/endangered-species,2.0,-1,Trad,"5.10c PG13",1,50,34.06911,-116.04105
"The Rattler","Emerald City > OZ_ > OZ Area > Joshua Tree National Park > California",https://www.mountainproject.com/route/105723622/the-rattler,3.4,-1,Trad,5.10c,1,80,34.03185,-116.04173
"There Is No Place Like Home","No Place Like Dome > OZ_ > OZ Area > Joshua Tree National Park > California",https://www.mountainproject.com/route/107166286/there-is-no-place-like-home,1.0,-1,Trad,"5.10c R",1,80,34.03086,-116.04782
"Smiles for The Grim Reaper","Munchkinland Crag > OZ_ > OZ Area > Joshua Tree National Park > California",https://www.mountainproject.com/route/105724138/smiles-for-the-grim-reaper,1.0,-1,Trad,"5.10c R",1,50,34.03083,-116.04802
"The Hourglass","Southwest Face > Voodoo Dome > OZ_ > OZ Area > Joshua Tree National Park > California",https://www.mountainproject.com/route/106628231/the-hourglass,1.0,-1,Trad,5.10c,1,50,34.03348,-116.03278
"Turtle Days","Tortoiseville > South Munchkinland > OZ Area > Joshua Tree National Park > California",https://www.mountainproject.com/route/107104462/turtle-days,1.0,-1,Trad,5.10c,1,60,34.0322,-116.0403
"Mother Board Breakdown","The Whispering Wall > Live Oak Picnic Area > Joshua Tree National Park > California",https://www.mountainproject.com/route/105791341/mother-board-breakdown,2.5,-1,Trad,5.10c,1,100,33.99917,-116.05184
"Whispering Wind","The Whispering Wall > Live Oak Picnic Area > Joshua Tree National Park > California",https://www.mountainproject.com/route/105798894/whispering-wind,2.1,-1,TR,5.10c,1,75,33.99917,-116.05184
"The Popemobile","Pope's Cape > Live Oak Picnic Area > Joshua Tree National Park > California",https://www.mountainproject.com/route/106037281/the-popemobile,2.0,-1,Trad,5.10c,1,75,33.99923,-116.05295
"Flakes of Grasp","Pac Man Rock > East Virgin Islands > Geology Tour Road > Joshua Tree National Park > California",https://www.mountainproject.com/route/106986234/flakes-of-grasp,1.0,-1,Trad,"5.10c R",1,30,33.94565,-116.05707
"Memorial Meowzer","Cat Pinnacle > East Virgin Islands > Geology Tour Road > Joshua Tree National Park > California",https://www.mountainproject.com/route/106986845/memorial-meowzer,2.0,-1,Trad,5.10c,1,50,33.94434,-116.05664
"One  Eyed Frog","Jerry's Quarry > Jerry's Quarry and Lost Pencil Areas > Geology Tour Road > Joshua Tree National Park > California",https://www.mountainproject.com/route/106754806/one-eyed-frog,1.0,-1,Sport,5.10c,1,35,33.95435,-116.09234
[Redacted],"The Cheyenne Social Club > Jerry's Quarry and Lost Pencil Areas > Geology Tour Road > Joshua Tree National Park > California",https://www.mountainproject.com/route/105724792/redacted,1.5,-1,Trad,5.10c,1,50,33.95243,-116.09812
"Milk Arete","Harry's Quarry > Jerry's Quarry and Lost Pencil Areas > Geology Tour Road > Joshua Tree National Park > California",https://www.mountainproject.com/route/106754655/milk-arete,2.5,-1,Sport,5.10+,2,70,33.95171,-116.09571
"The Right Hand of Light","Lava Dome > Towers of Uncertainty > Geology Tour Road > Joshua Tree National Park > California",https://www.mountainproject.com/route/105815764/the-right-hand-of-light,2.5,-1,TR,5.10c,1,60,33.96615,-116.08673
"Cave Right","West Face > Cave Rock > Towers of Uncertainty > Geology Tour Road > Joshua Tree National Park > California",https://www.mountainproject.com/route/111656857/cave-right,1.0,-1,Trad,5.10+,1,40,33.9666,-116.0862
"Bent Over Backwards","Two Bolt Rock > Towers of Uncertainty > Geology Tour Road > Joshua Tree National Park > California",https://www.mountainproject.com/route/105931449/bent-over-backwards,1.0,-1,Trad,5.10c,1,,33.96602,-116.08483
"Doin' Some Damage","Demon Dome > Towers of Uncertainty > Geology Tour Road > Joshua Tree National Park > California",https://www.mountainproject.com/route/106647923/doin-some-damage,1.0,-1,Trad,5.10c,1,40,33.96643,-116.08569
"Center of Gravity","Gravity Rock > Towers of Uncertainty > Geology Tour Road > Joshua Tree National Park > California",https://www.mountainproject.com/route/105960073/center-of-gravity,1.0,-1,TR,5.10c,1,50,33.96679,-116.08614
Cyclotron,"Perpetual Motion Wall > Virgin Islands Area > Geology Tour Road > Joshua Tree National Park > California",https://www.mountainproject.com/route/107103112/cyclotron,2.0,-1,Trad,5.10c,1,60,33.94967,-116.06993
"Kook Book","Volcano Vicinity > Virgin Islands Area > Geology Tour Road > Joshua Tree National Park > California",https://www.mountainproject.com/route/107099995/kook-book,3.0,-1,Trad,5.10c,1,80,33.94803,-116.07276
"Spooky Boobs","Little Europe > Virgin Islands Area > Geology Tour Road > Joshua Tree National Park > California",https://www.mountainproject.com/route/110918091/spooky-boobs,1.3,-1,Sport,5.10c,1,20,33.94995,-116.07517
"Left Appendectomy Crack","The Iguana > The Galapagos > Geology Tour Road > Joshua Tree National Park > California",https://www.mountainproject.com/route/106805808/left-appendectomy-crack,1.0,-1,Trad,5.10+,1,50,33.9571,-116.1205
"Appendectomy Crack","The Iguana > The Galapagos > Geology Tour Road > Joshua Tree National Park > California",https://www.mountainproject.com/route/105723136/appendectomy-crack,1.7,-1,Trad,5.10c/d,1,70,33.9571,-116.1205
"Elvis Impersonators and Traveling Priests","Monkey Dome > The Galapagos > Geology Tour Road > Joshua Tree National Park > California",https://www.mountainproject.com/route/106805661/elvis-impersonators-and-traveling-priests,2.0,-1,Sport,5.10c,1,60,33.95945,-116.11862
"Uncle Anesthesia","The Back Rocks > White Tank Campground > Joshua Tree National Park > California",https://www.mountainproject.com/route/117336923/uncle-anesthesia,2.0,-1,Trad,5.10c,1,50,33.98662,-116.0115
"Saving Ryan's Privates","GoldenEye Spire > The Safe Zone > Indian Head Area > Joshua Tree National Park > California",https://www.mountainproject.com/route/106787212/saving-ryans-privates,1.0,-1,Trad,5.10c,1,45,34.09365,-116.05044
Arkansass,"The Great White Face > Indian Head Area > Joshua Tree National Park > California",https://www.mountainproject.com/route/106761232/arkansass,1.0,-1,Trad,5.10c,1,120,34.0982,-116.0615
"Funky President","Hillside Crags > Forty Nine Palms Oasis Area > Joshua Tree National Park > California",https://www.mountainproject.com/route/106759723/funky-president,2.0,-1,Trad,5.10c,1,50,34.12765,-116.09929
"Baby Pillows","Butterbags Buttress > Cottonwood Area > Joshua Tree National Park > California",https://www.mountainproject.com/route/106788450/baby-pillows,3.0,-1,Trad,5.10c,1,70,33.71885,-115.80655
"Child Proof","Siberia > Outer Mongolia > The Middle Kingdom > Wonderland North > Wonderland of Rocks > Joshua Tree National Park > California",https://www.mountainproject.com/route/107180743/child-proof,2.0,-1,Trad,5.10c,1,80,34.06957,-116.16993
"You'll Rattle on This One!","Snake Dome > West Mongolia > Outer Mongolia > The Middle Kingdom > Wonderland North > Wonderland of Rocks > Joshua Tree National Park > California",https://www.mountainproject.com/route/108169404/youll-rattle-on-this-one,1.0,-1,Trad,5.10b/c,1,70,34.07226,-116.1721
"Too Thin For Poodles","The Techulator > The Middle Kingdom > Wonderland North > Wonderland of Rocks > Joshua Tree National Park > California",https://www.mountainproject.com/route/107102278/too-thin-for-poodles,1.5,-1,Trad,5.10c,1,100,34.05953,-116.1704
"Wren's Nest","The Techulator > The Middle Kingdom > Wonderland North > Wonderland of Rocks > Joshua Tree National Park > California",https://www.mountainproject.com/route/107124682/wrens-nest,1.0,-1,Trad,5.10c,1,40,34.05953,-116.1704
"Nuts And Bolts Of Climbing, the","Smith Rock > The Middle Kingdom > Wonderland North > Wonderland of Rocks > Joshua Tree National Park > California",https://www.mountainproject.com/route/107102314/nuts-and-bolts-of-climbing-the,3.0,-1,Trad,5.10c,1,80,34.05775,-116.17156
"Rob'n The Cradle","El Dorado > The Middle Kingdom > Wonderland North > Wonderland of Rocks > Joshua Tree National Park > California",https://www.mountainproject.com/route/107124622/robn-the-cradle,2.0,-1,Trad,5.10c,1,80,34.06087,-116.17453
"Wide World Of Sports","El Dorado > The Middle Kingdom > Wonderland North > Wonderland of Rocks > Joshua Tree National Park > California",https://www.mountainproject.com/route/105971418/wide-world-of-sports,1.0,-1,Trad,5.10c,1,,34.06087,-116.17453
"Little Bit Of Magic, A","Pernicious Dome > The Middle Kingdom > Wonderland North > Wonderland of Rocks > Joshua Tree National Park > California",https://www.mountainproject.com/route/107102301/little-bit-of-magic-a,3.0,-1,Trad,5.10c,1,60,34.06091,-116.17034
"Foreign Legion","Ellsmere Island > North Wonderland Approach > Wonderland North > Wonderland of Rocks > Joshua Tree National Park > California",https://www.mountainproject.com/route/105725332/foreign-legion,1.7,-1,Trad,5.10c,1,40,34.05623,-116.17811
"Do the Math","Ellsmere Island > North Wonderland Approach > Wonderland North > Wonderland of Rocks > Joshua Tree National Park > California",https://www.mountainproject.com/route/107558480/do-the-math,2.0,-1,TR,5.10c/d,1,70,34.05623,-116.17811
"What A Drag It Is Getting Old","Reggie Dome > North Wonderland Approach > Wonderland North > Wonderland of Rocks > Joshua Tree National Park > California",https://www.mountainproject.com/route/106321256/what-a-drag-it-is-getting-old,1.0,-1,Sport,5.10+,1,50,34.04045,-116.17781
"Burst the Bubble","Financial Wall > North Wonderland Approach > Wonderland North > Wonderland of Rocks > Joshua Tree National Park > California",https://www.mountainproject.com/route/105724756/burst-the-bubble,1.0,-1,Trad,5.10b/c,1,70,34.04971,-116.17459
"The Screaming Poodle","Hidden Dome > North Wonderland Approach > Wonderland North > Wonderland of Rocks > Joshua Tree National Park > California",https://www.mountainproject.com/route/106129808/the-screaming-poodle,2.2,-1,Trad,5.10c,1,75,34.05425,-116.17459
"Balance Due","Hidden Dome > North Wonderland Approach > Wonderland North > Wonderland of Rocks > Joshua Tree National Park > California",https://www.mountainproject.com/route/105811868/balance-due,2.8,-1,Trad,5.10c,1,80,34.05425,-116.17459
"Hole in the Wall","Brownie Girl Dome > North Wonderland Approach > Wonderland North > Wonderland of Rocks > Joshua Tree National Park > California",https://www.mountainproject.com/route/107992081/hole-in-the-wall,2.5,-1,Trad,5.10c,1,70,34.04918,-116.18499
"Mustang Ranch","Mustang Ranch > North Wonderland Approach > Wonderland North > Wonderland of Rocks > Joshua Tree National Park > California",https://www.mountainproject.com/route/107123324/mustang-ranch,2.0,-1,Trad,5.10c,1,20,34.0519,-116.18153
"Ginger's Crack","Ginger's Face > Gilligan's Island > North Wonderland Approach > Wonderland North > Wonderland of Rocks > Joshua Tree National Park > California",https://www.mountainproject.com/route/105724747/gingers-crack,2.3,-1,Trad,5.10c/d,1,30,34.05701,-116.17837
"Point Break","Unreported Rock > North Wonderland Approach > Wonderland North > Wonderland of Rocks > Joshua Tree National Park > California",https://www.mountainproject.com/route/107024881/point-break,1.8,-1,Sport,5.10b/c,1,50,34.05296,-116.17629
"Frank's Sandwich","Unreported Rock > North Wonderland Approach > Wonderland North > Wonderland of Rocks > Joshua Tree National Park > California",https://www.mountainproject.com/route/107024864/franks-sandwich,1.3,-1,TR,5.10+,1,50,34.05296,-116.17629
"Hubba Bubba","Bubba Rock > North Wonderland Approach > Wonderland North > Wonderland of Rocks > Joshua Tree National Park > California",https://www.mountainproject.com/route/112892832/hubba-bubba,1.0,-1,TR,5.10c,1,60,34.03981,-116.17688
Cora-Door,"[Redacted] > Atom Smasher Area > Wonderland North > Wonderland of Rocks > Joshua Tree National Park > California",https://www.mountainproject.com/route/107374938/cora-door,-1.0,-1,TR,5.10c,1,,34.07049,-116.1588
"Bighorn Dihedral","Suicide Horn Rock > Willow Hole Area > Wonderland North > Wonderland of Rocks > Joshua Tree National Park > California",https://www.mountainproject.com/route/105722794/bighorn-dihedral,3.7,-1,Trad,5.10c,1,50,34.06662,-116.14234
"The Dunce Cap","The Dunce Cap > Willow Hole Area > Wonderland North > Wonderland of Rocks > Joshua Tree National Park > California",https://www.mountainproject.com/route/105722935/the-dunce-cap,2.5,-1,Trad,"5.10c R",1,100,34.06769,-116.14277
"Dimpled Chad","The Super Slab > Willow Hole Area > Wonderland North > Wonderland of Rocks > Joshua Tree National Park > California",https://www.mountainproject.com/route/106422986/dimpled-chad,1.0,-1,Trad,5.10c,1,80,34.0691,-116.15406
"The Bilderberg Conference","The Super Dome > Willow Hole Area > Wonderland North > Wonderland of Rocks > Joshua Tree National Park > California",https://www.mountainproject.com/route/105723313/the-bilderberg-conference,1.0,-1,Trad,5.10c,1,30,34.07296,-116.15346
"No Self Confidence","The Flying Fortress > Grey Giant Area > Wonderland North > Wonderland of Rocks > Joshua Tree National Park > California",https://www.mountainproject.com/route/105723103/no-self-confidence,3.5,-1,Trad,5.10c,1,110,34.06487,-116.14877
"No Self Respect","The Flying Fortress > Grey Giant Area > Wonderland North > Wonderland of Rocks > Joshua Tree National Park > California",https://www.mountainproject.com/route/105723100/no-self-respect,3.0,-1,Trad,5.10c/d,1,110,34.06487,-116.14877
Roark,"The Fortress > Grey Giant Area > Wonderland North > Wonderland of Rocks > Joshua Tree National Park > California",https://www.mountainproject.com/route/107099087/roark,1.7,-1,Trad,5.10c,1,120,34.06345,-116.14818
"No Ambition","Trifling Rock (West Face - Middle Section) > Trifling Rock > Near East > Wonderland South > Wonderland of Rocks > Joshua Tree National Park > California",https://www.mountainproject.com/route/112342532/no-ambition,1.0,-1,TR,5.10c,1,40,34.0349,-116.13659
"My Favorite Things (aka Blue Grass)","Afro Blues Wall (Northwest Face) > Afro Blues Wall > Near East > Wonderland South > Wonderland of Rocks > Joshua Tree National Park > California",https://www.mountainproject.com/route/107345008/my-favorite-things-aka-blue-grass,2.5,-1,Trad,"5.10c R",1,80,34.03377,-116.13894
"My Bride, My Hilti, and My Shoulders","The Wedding Block > Near East > Wonderland South > Wonderland of Rocks > Joshua Tree National Park > California",https://www.mountainproject.com/route/114027958/my-bride-my-hilti-and-my-shoulders,1.0,-1,Sport,5.10c/d,1,40,34.03667,-116.13553
"Greenhorn Dihedral","Bighorn Dome > Far East > Wonderland South > Wonderland of Rocks > Joshua Tree National Park > California",https://www.mountainproject.com/route/105722980/greenhorn-dihedral,2.5,-1,Trad,5.10c,1,100,34.04798,-116.13913
"Jack in the Crack","Bighorn Dome > Far East > Wonderland South > Wonderland of Rocks > Joshua Tree National Park > California",https://www.mountainproject.com/route/110110553/jack-in-the-crack,2.0,-1,Trad,5.10c/d,1,30,34.04798,-116.13913
"The Refrigerator - Left Side","The Refrigerator > Far East > Wonderland South > Wonderland of Rocks > Joshua Tree National Park > California",https://www.mountainproject.com/route/108053874/the-refrigerator-left-side,2.0,-1,Trad,5.10c,1,40,34.0568,-116.13658
Fantasia,"Disneyland Dome > Central Wonderland > Wonderland South > Wonderland of Rocks > Joshua Tree National Park > California",https://www.mountainproject.com/route/112427052/fantasia,1.0,-1,Trad,"5.10b/c R",3,200,34.0462,-116.1445
"Ground Ron","Thrutcher Dome > Central Wonderland > Wonderland South > Wonderland of Rocks > Joshua Tree National Park > California",https://www.mountainproject.com/route/107121842/ground-ron,1.0,-1,Trad,5.10c,1,60,34.04558,-116.1435
"I Saw Daddy Kissing Santa","Butler Corridor > Central Wonderland > Wonderland South > Wonderland of Rocks > Joshua Tree National Park > California",https://www.mountainproject.com/route/106722007/i-saw-daddy-kissing-santa,3.0,-1,Sport,5.10b/c,1,80,34.04779,-116.14372
"The Secret of Mother Butler (aka  Appetite for Destruction)","Butler Corridor > Central Wonderland > Wonderland South > Wonderland of Rocks > Joshua Tree National Park > California",https://www.mountainproject.com/route/105723718/the-secret-of-mother-butler-aka-appetite-for-destruction,2.0,-1,Trad,5.10c,1,70,34.04779,-116.14372
"The Viper","Butler Corridor > Central Wonderland > Wonderland South > Wonderland of Rocks > Joshua Tree National Park > California",https://www.mountainproject.com/route/105723721/the-viper,2.2,-1,Trad,5.10c,1,80,34.04779,-116.14372
"Tony Balonie","Inauguron Dome > Central Wonderland > Wonderland South > Wonderland of Rocks > Joshua Tree National Park > California",https://www.mountainproject.com/route/107529782/tony-balonie,1.0,-1,TR,5.10+,1,90,34.04917,-116.1443
"Bridge-It Bardot","Duckwaddle Domes > Central Wonderland > Wonderland South > Wonderland of Rocks > Joshua Tree National Park > California",https://www.mountainproject.com/route/108598715/bridge-it-bardot,1.0,-1,Trad,5.10+,1,70,34.04779,-116.14372
"Flittering Fingers","Surprise Rock > East Wonderland Valley > Wonderland Valley > Wonderland South > Wonderland of Rocks > Joshua Tree National Park > California",https://www.mountainproject.com/route/112858793/flittering-fingers,1.0,-1,TR,5.10+,1,60,34.04177,-116.14396
"It Seams Possible","South Astro Dome -  Southwest Face > South Astro Dome > The Astro Domes > West Wonderland Valley > Wonderland Valley > Wonderland South > Wonderland of Rocks > Joshua Tree National Park > California",https://www.mountainproject.com/route/106327024/it-seams-possible,-1.0,-1,Trad,"5.10c R",1,80,34.03775,-116.14766
"Piggle Pugg","South Astro Dome - Northeast Face > South Astro Dome > The Astro Domes > West Wonderland Valley > Wonderland Valley > Wonderland South > Wonderland of Rocks > Joshua Tree National Park > California",https://www.mountainproject.com/route/105721864/piggle-pugg,2.9,-1,Trad,5.10c,1,60,34.03858,-116.14713
"Bleed Between the Lines","South Astro Dome - Northeast Face > South Astro Dome > The Astro Domes > West Wonderland Valley > Wonderland Valley > Wonderland South > Wonderland of Rocks > Joshua Tree National Park > California",https://www.mountainproject.com/route/105868941/bleed-between-the-lines,2.0,-1,TR,5.10c/d,1,,34.03858,-116.14713
Godsend,"North Astro Dome - Southwest Face > North Astro Dome > The Astro Domes > West Wonderland Valley > Wonderland Valley > Wonderland South > Wonderland of Rocks > Joshua Tree National Park > California",https://www.mountainproject.com/route/107550925/godsend,2.8,-1,Sport,5.10b/c,1,115,34.03859,-116.14801
"Chute to Kill","North Astro Dome - Southwest Face > North Astro Dome > The Astro Domes > West Wonderland Valley > Wonderland Valley > Wonderland South > Wonderland of Rocks > Joshua Tree National Park > California",https://www.mountainproject.com/route/105725380/chute-to-kill,2.3,-1,Sport,5.10c,1,80,34.03859,-116.14801
Astroturf,"North Astro Dome - Northeast Face > North Astro Dome > The Astro Domes > West Wonderland Valley > Wonderland Valley > Wonderland South > Wonderland of Rocks > Joshua Tree National Park > California",https://www.mountainproject.com/route/106296967/astroturf,3.6,-1,Trad,"5.10c R",2,240,34.03886,-116.14762
"Cole-Gordon Offwidth","Punk Rock (aka Beagle Rocks) > West Wonderland Valley > Wonderland Valley > Wonderland South > Wonderland of Rocks > Joshua Tree National Park > California",https://www.mountainproject.com/route/107132053/cole-gordon-offwidth,1.0,-1,Trad,5.10c,1,80,34.04296,-116.14633
"Laid Back And Doing It","Old A Hotie Rock > West Wonderland Valley > Wonderland Valley > Wonderland South > Wonderland of Rocks > Joshua Tree National Park > California",https://www.mountainproject.com/route/107132014/laid-back-and-doing-it,2.0,-1,Trad,5.10c,2,100,34.04211,-116.14693
"Quite Rowdy","Jolly Good Dome > West Wonderland Valley > Wonderland Valley > Wonderland South > Wonderland of Rocks > Joshua Tree National Park > California",https://www.mountainproject.com/route/107434586/quite-rowdy,3.0,-1,Trad,"5.10+ PG13",1,40,34.0454,-116.1525
"Quebec Nordics","Sergeant Rock > South Wonderland Approach > Wonderland South > Wonderland of Rocks > Joshua Tree National Park > California",https://www.mountainproject.com/route/106783878/quebec-nordics,1.0,-1,Trad,5.10+,1,60,34.03265,-116.13959
Solstice,"Fire Me a Burger Rock > South Wonderland Approach > Wonderland South > Wonderland of Rocks > Joshua Tree National Park > California",https://www.mountainproject.com/route/107110695/solstice,1.0,-1,Trad,5.10c,1,50,34.03399,-116.14145
